[{'lng': '12.167996', 'id': '538795', 'lat': '50.234774', 'votes': [11, 33], 'town': 'Krásná'},  {'lng': '12.175772', 'id': '554553', 'lat': '50.304588', 'votes': [58, 160], 'town': 'Hranice'},  {'lng': '12.190264', 'id': '554499', 'lat': '50.22229', 'votes': [219, 965], 'town': 'Aš'},  {'lng': '12.201736', 'id': '538817', 'lat': '50.255347', 'votes': [2, 14], 'town': 'Podhradí'},  {'lng': '12.230824', 'id': '554618', 'lat': '50.128161', 'votes': [22, 68], 'town': 'Libá'},  {'lng': '12.272378', 'id': '554545', 'lat': '50.156342', 'votes': [29, 102], 'town': 'Hazlov'},  {'lng': '12.284114', 'id': '538868', 'lat': '50.085682', 'votes': [7, 16], 'town': 'Pomezí nad Ohrí'},  {'lng': '12.298172', 'id': '577979', 'lat': '50.140159', 'votes': [5, 10], 'town': 'Poustka'},  {'lng': '12.316902', 'id': '539074', 'lat': '50.166181', 'votes': [2, 14], 'town': 'Vojtanov'},  {'lng': '12.346691', 'id': '554740', 'lat': '50.220702', 'votes': [202, 177], 'town': 'Plesná'},  {'lng': '12.351739', 'id': '554529', 'lat': '50.120331', 'votes': [173, 516], 'town': 'Františkovy Lázne'},  {'lng': '12.361442', 'id': '554812', 'lat': '50.170298', 'votes': [83, 216], 'town': 'Skalná'},  {'lng': '12.371099', 'id': '554481', 'lat': '50.079044', 'votes': [905, 2864], 'town': 'Cheb'},  {'lng': '12.372027', 'id': '578002', 'lat': '50.199057', 'votes': [2, 11], 'town': 'Velký Luh'},  {'lng': '12.393053', 'id': '554596', 'lat': '50.194156', 'votes': [17, 41], 'town': 'Križovatka'},  {'lng': '12.40015', 'id': '539023', 'lat': '50.128632', 'votes': [5, 20], 'town': 'Treben'},  {'lng': '12.405946', 'id': '554634', 'lat': '50.25248', 'votes': [78, 181], 'town': 'Luby'},  {'lng': '12.445244', 'id': '554707', 'lat': '50.217018', 'votes': [38, 38], 'town': 'Nový Kostel'},  {'lng': '12.448811', 'id': '554626', 'lat': '50.036286', 'votes': [15, 60], 'town': 'Lipová'},  {'lng': '12.45319', 'id': '554651', 'lat': '50.156043', 'votes': [8, 28], 'town': 'Milhostov'},  {'lng': '12.471968', 'id': '554693', 'lat': '50.11524', 'votes': [12, 30], 'town': 'Nebanice'},  {'lng': '12.484133', 'id': '539554', 'lat': '50.103058', 'votes': [6, 13], 'town': 'Odrava'},  {'lng': '12.487743', 'id': '538922', 'lat': '50.062375', 'votes': [8, 19], 'town': 'Okrouhlá'},  {'lng': '12.504288', 'id': '560421', 'lat': '50.148926', 'votes': [6, 45], 'town': 'Kacerov'},  {'lng': '12.505168', 'id': '560308', 'lat': '50.374382', 'votes': [13, 47], 'town': 'Bublava'},  {'lng': '12.517468', 'id': '560472', 'lat': '50.323723', 'votes': [173, 608], 'town': 'Kraslice'},  {'lng': '12.521985', 'id': '539619', 'lat': '50.084008', 'votes': [5, 13], 'town': 'Turany'},  {'lng': '12.526399', 'id': '560651', 'lat': '50.356654', 'votes': [15, 42], 'town': 'Stríbrná'},  {'lng': '12.53027', 'id': '560499', 'lat': '50.118926', 'votes': [175, 571], 'town': 'Kynšperk nad Ohrí'},  {'lng': '12.534074', 'id': '560456', 'lat': '50.215967', 'votes': [16, 61], 'town': 'Krajková'},  {'lng': '12.535645', 'id': '560375', 'lat': '50.149837', 'votes': [16, 44], 'town': 'Chlum Svaté Marí'},  {'lng': '12.537671', 'id': '561002', 'lat': '49.754173', 'votes': [20, 48], 'town': 'Lesná'},  {'lng': '12.537686', 'id': '541443', 'lat': '49.814603', 'votes': [2, 7], 'town': 'Obora'},  {'lng': '12.547599', 'id': '538906', 'lat': '50.055774', 'votes': [7, 14], 'town': 'Milíkov'},  {'lng': '12.550386', 'id': '541532', 'lat': '49.796295', 'votes': [7, 16], 'town': 'Milíre'},  {'lng': '12.550536', 'id': '560359', 'lat': '50.182966', 'votes': [120, 514], 'town': 'Habartov'},  {'lng': '12.551009', 'id': '554502', 'lat': '50.017944', 'votes': [23, 98], 'town': 'Dolní Žandov'},  {'lng': '12.551885', 'id': '561169', 'lat': '49.668167', 'votes': [12, 47], 'town': 'Rozvadov'},  {'lng': '12.552485', 'id': '560502', 'lat': '50.128867', 'votes': [9, 50], 'town': 'Libavské Údolí'},  {'lng': '12.558766', 'id': '560588', 'lat': '50.251131', 'votes': [46, 149], 'town': 'Oloví'},  {'lng': '12.567226', 'id': '560332', 'lat': '50.146454', 'votes': [1, 39], 'town': 'Dasnice'},  {'lng': '12.572649', 'id': '560316', 'lat': '50.166325', 'votes': [29, 160], 'town': 'Bukovany'},  {'lng': '12.573408', 'id': '560600', 'lat': '50.296269', 'votes': [160, 253], 'town': 'Rotava'},  {'lng': '12.579393', 'id': '560863', 'lat': '49.831021', 'votes': [43, 67], 'town': 'Halže'},  {'lng': '12.579428', 'id': '511587', 'lat': '50.211516', 'votes': [5, 30], 'town': 'Josefov'},  {'lng': '12.582315', 'id': '538396', 'lat': '50.135636', 'votes': [5, 30], 'town': 'Šabina'},  {'lng': '12.595794', 'id': '539112', 'lat': '49.991519', 'votes': [11, 29], 'town': 'Stará Voda'},  {'lng': '12.597454', 'id': '560898', 'lat': '49.696194', 'votes': [13, 34], 'town': 'Hoštka'},  {'lng': '12.602304', 'id': '560413', 'lat': '50.282649', 'votes': [6, 43], 'town': 'Jindrichovice'},  {'lng': '12.603321', 'id': '560677', 'lat': '50.318652', 'votes': [25, 46], 'town': 'Šindelová'},  {'lng': '12.603672', 'id': '561223', 'lat': '49.780571', 'votes': [11, 38], 'town': 'Studánka'},  {'lng': '12.60669', 'id': '541401', 'lat': '49.889366', 'votes': [8, 14], 'town': 'Broumov'},  {'lng': '12.610006', 'id': '579459', 'lat': '49.827218', 'votes': [25, 55], 'town': 'Ctibor'},  {'lng': '12.613323', 'id': '560324', 'lat': '50.16256', 'votes': [28, 83], 'town': 'Citice'},  {'lng': '12.616629', 'id': '554880', 'lat': '49.942165', 'votes': [17, 49], 'town': 'Tri Sekery'},  {'lng': '12.620039', 'id': '560596', 'lat': '50.365778', 'votes': [3, 12], 'town': 'Prebuz'},  {'lng': '12.624737', 'id': '554600', 'lat': '50.010581', 'votes': [46, 132], 'town': 'Lázne Kynžvart'},  {'lng': '12.626097', 'id': '538434', 'lat': '50.192421', 'votes': [45, 146], 'town': 'Svatava'},  {'lng': '12.628466', 'id': '560839', 'lat': '49.768293', 'votes': [19, 34], 'town': 'Dlouhý Újezd'},  {'lng': '12.631338', 'id': '560715', 'lat': '49.795134', 'votes': [445, 1277], 'town': 'Tachov'},  {'lng': '12.632671', 'id': '560545', 'lat': '50.211739', 'votes': [27, 113], 'town': 'Lomnice'},  {'lng': '12.63704', 'id': '560341', 'lat': '50.243107', 'votes': [5, 28], 'town': 'Dolní Nivy'},  {'lng': '12.643671', 'id': '560286', 'lat': '50.179547', 'votes': [760, 2485], 'town': 'Sokolov'},  {'lng': '12.645075', 'id': '538591', 'lat': '50.16462', 'votes': [39, 117], 'town': 'Dolní Rychnov'},  {'lng': '12.649933', 'id': '560910', 'lat': '49.864314', 'votes': [23, 64], 'town': 'Chodský Újezd'},  {'lng': '12.64996', 'id': '560294', 'lat': '50.145573', 'votes': [93, 298], 'town': 'Brezová'},  {'lng': '12.654554', 'id': '541362', 'lat': '49.890491', 'votes': [9, 12], 'town': 'Zadní Chodov'},  {'lng': '12.654789', 'id': '539481', 'lat': '49.976795', 'votes': [9, 39], 'town': 'Valy'},  {'lng': '12.665503', 'id': '554511', 'lat': '49.938959', 'votes': [22, 62], 'town': 'Drmoul'},  {'lng': '12.66763', 'id': '539279', 'lat': '49.961513', 'votes': [78, 196], 'town': 'Velká Hledsebe'},  {'lng': '12.668735', 'id': '560618', 'lat': '50.1044', 'votes': [9, 17], 'town': 'Rovná'},  {'lng': '12.67366', 'id': '561151', 'lat': '49.674878', 'votes': [30, 123], 'town': 'Primda'},  {'lng': '12.673685', 'id': '560804', 'lat': '49.755966', 'votes': [19, 49], 'town': 'Cástkov'},  {'lng': '12.676019', 'id': '554855', 'lat': '49.919099', 'votes': [5, 18], 'town': 'Trstenice'},  {'lng': '12.676751', 'id': '554189', 'lat': '49.51276', 'votes': [6, 17], 'town': 'Rybník'},  {'lng': '12.676882', 'id': '579360', 'lat': '50.182196', 'votes': [4, 18], 'town': 'Tešovice'},  {'lng': '12.680315', 'id': '560464', 'lat': '50.193809', 'votes': [28, 101], 'town': 'Královské Porící'},  {'lng': '12.692589', 'id': '541702', 'lat': '49.818661', 'votes': [14, 42], 'town': 'Lom u Tachova'},  {'lng': '12.694139', 'id': '561185', 'lat': '49.744334', 'votes': [28, 63], 'town': 'Staré Sedlište'},  {'lng': '12.695656', 'id': '561304', 'lat': '49.625261', 'votes': [10, 40], 'town': 'Tremešné'},  {'lng': '12.696476', 'id': '560707', 'lat': '50.259086', 'votes': [1, 9], 'town': 'Vresová'},  {'lng': '12.697229', 'id': '538663', 'lat': '50.276822', 'votes': [3, 23], 'town': 'Tatrovice'},  {'lng': '12.699086', 'id': '578029', 'lat': '50.3466', 'votes': [2, 12], 'town': 'Vysoká Pec'},  {'lng': '12.701922', 'id': '554642', 'lat': '49.975718', 'votes': [369, 1037], 'town': 'Mariánské Lázne'},  {'lng': '12.710967', 'id': '538019', 'lat': '50.291255', 'votes': [5, 18], 'town': 'Cernava'},  {'lng': '12.713822', 'id': '541621', 'lat': '49.765177', 'votes': [12, 38], 'town': 'Tisová'},  {'lng': '12.717481', 'id': '560685', 'lat': '50.233818', 'votes': [48, 98], 'town': 'Vintírov'},  {'lng': '12.717606', 'id': '553441', 'lat': '49.591149', 'votes': [53, 158], 'town': 'Belá nad Radbuzou'},  {'lng': '12.7192', 'id': '506494', 'lat': '50.360047', 'votes': [7, 37], 'town': 'Nové Hamry'},  {'lng': '12.719825', 'id': '560642', 'lat': '50.181697', 'votes': [25, 97], 'town': 'Staré Sedlo'},  {'lng': '12.720532', 'id': '554006', 'lat': '49.436551', 'votes': [8, 32], 'town': 'Nemanice'},  {'lng': '12.729356', 'id': '555380', 'lat': '50.322418', 'votes': [245, 541], 'town': 'Nejdek'},  {'lng': '12.730212', 'id': '560901', 'lat': '49.893231', 'votes': [61, 190], 'town': 'Chodová Planá'},  {'lng': '12.732794', 'id': '539538', 'lat': '50.050073', 'votes': [1, 7], 'town': 'Prameny'},  {'lng': '12.736479', 'id': '555479', 'lat': '50.428163', 'votes': [15, 26], 'town': 'Potucky'},  {'lng': '12.736596', 'id': '541559', 'lat': '49.808655', 'votes': [5, 14], 'town': 'Kocov'},  {'lng': '12.738004', 'id': '560570', 'lat': '50.206467', 'votes': [68, 238], 'town': 'Nové Sedlo'},  {'lng': '12.739008', 'id': '539376', 'lat': '49.948816', 'votes': [5, 19], 'town': 'Vlkovice'},  {'lng': '12.739847', 'id': '566276', 'lat': '49.518874', 'votes': [9, 14], 'town': 'Hora Svatého Václava'},  {'lng': '12.741089', 'id': '541605', 'lat': '49.835285', 'votes': [3, 13], 'town': 'Brod nad Tichou'},  {'lng': '12.743357', 'id': '539431', 'lat': '49.970977', 'votes': [5, 26], 'town': 'Zádub-Závišín'},  {'lng': '12.743783', 'id': '561134', 'lat': '49.868156', 'votes': [143, 451], 'town': 'Planá'},  {'lng': '12.744559', 'id': '553999', 'lat': '49.544746', 'votes': [9, 21], 'town': 'Mutenín'},  {'lng': '12.749282', 'id': '560383', 'lat': '50.238756', 'votes': [393, 1293], 'town': 'Chodov'},  {'lng': '12.754047', 'id': '560537', 'lat': '50.186002', 'votes': [98, 224], 'town': 'Loket'},  {'lng': '12.758148', 'id': '553573', 'lat': '49.524128', 'votes': [5, 17], 'town': 'Drahotín'},  {'lng': '12.764421', 'id': '566292', 'lat': '49.496718', 'votes': [8, 31], 'town': 'Mnichov'},  {'lng': '12.765325', 'id': '538027', 'lat': '50.291468', 'votes': [5, 15], 'town': 'Smolné Pece'},  {'lng': '12.768907', 'id': '555045', 'lat': '50.257945', 'votes': [19, 56], 'town': 'Božicany'},  {'lng': '12.769993', 'id': '537934', 'lat': '50.237178', 'votes': [11, 32], 'town': 'Mírová'},  {'lng': '12.77093', 'id': '555169', 'lat': '50.390383', 'votes': [6, 13], 'town': 'Horní Blatná'},  {'lng': '12.771276', 'id': '566331', 'lat': '49.505565', 'votes': [2, 2], 'town': 'Hvoždany'},  {'lng': '12.771467', 'id': '553689', 'lat': '49.55971', 'votes': [36, 127], 'town': 'Hostoun'},  {'lng': '12.775164', 'id': '560758', 'lat': '49.711595', 'votes': [110, 329], 'town': 'Bor'},  {'lng': '12.775172', 'id': '560561', 'lat': '50.08409', 'votes': [4, 9], 'town': 'Nová Ves'},  {'lng': '12.77773', 'id': '561207', 'lat': '49.669068', 'votes': [30, 75], 'town': 'Stráž'},  {'lng': '12.779091', 'id': '539473', 'lat': '49.953001', 'votes': [1, 2], 'town': 'Ovesné Kladruby'},  {'lng': '12.783707', 'id': '555452', 'lat': '50.365687', 'votes': [14, 54], 'town': 'Pernink'},  {'lng': '12.784217', 'id': '555398', 'lat': '50.270917', 'votes': [161, 428], 'town': 'Nová Role'},  {'lng': '12.786226', 'id': '538337', 'lat': '50.109176', 'votes': [22, 75], 'town': 'Krásno'},  {'lng': '12.786388', 'id': '553557', 'lat': '49.446262', 'votes': [20, 31], 'town': 'Díly'},  {'lng': '12.786928', 'id': '554677', 'lat': '50.03687', 'votes': [5, 19], 'town': 'Mnichov'},  {'lng': '12.789878', 'id': '551651', 'lat': '50.213743', 'votes': [13, 24], 'town': 'Hory'},  {'lng': '12.79993', 'id': '537926', 'lat': '50.226538', 'votes': [29, 61], 'town': 'Jenišov'},  {'lng': '12.802611', 'id': '554111', 'lat': '49.510295', 'votes': [38, 169], 'town': 'Pobežovice'},  {'lng': '12.804977', 'id': '554057', 'lat': '49.477271', 'votes': [16, 36], 'town': 'Nový Kramolín'},  {'lng': '12.80518', 'id': '566250', 'lat': '49.488528', 'votes': [3, 10], 'town': 'Vlkanov'},  {'lng': '12.806781', 'id': '554138', 'lat': '49.458275', 'votes': [44, 119], 'town': 'Postrekov'},  {'lng': '12.807581', 'id': '560367', 'lat': '50.138632', 'votes': [146, 573], 'town': 'Horní Slavkov'},  {'lng': '12.813898', 'id': '538116', 'lat': '50.294571', 'votes': [8, 26], 'town': 'Depoltovice'},  {'lng': '12.815046', 'id': '553794', 'lat': '49.43513', 'votes': [49, 123], 'town': 'Klencí pod Cerchovem'},  {'lng': '12.81826', 'id': '554979', 'lat': '50.368745', 'votes': [32, 59], 'town': 'Abertamy'},  {'lng': '12.830236', 'id': '553735', 'lat': '49.417977', 'votes': [37, 89], 'town': 'Chodov'},  {'lng': '12.831179', 'id': '554090', 'lat': '49.398573', 'votes': [15, 23], 'town': 'Pec'},  {'lng': '12.835511', 'id': '554421', 'lat': '49.613752', 'votes': [4, 9], 'town': 'Vidice'},  {'lng': '12.838314', 'id': '554995', 'lat': '50.083451', 'votes': [21, 97], 'town': 'Becov nad Teplou'},  {'lng': '12.840616', 'id': '599182', 'lat': '49.471541', 'votes': [5, 11], 'town': 'Parezov'},  {'lng': '12.842492', 'id': '566209', 'lat': '49.486486', 'votes': [4, 13], 'town': 'Otov'},  {'lng': '12.845526', 'id': '554359', 'lat': '49.42023', 'votes': [30, 81], 'town': 'Trhanov'},  {'lng': '12.851565', 'id': '537845', 'lat': '50.148592', 'votes': [2, 11], 'town': 'Teplicka'},  {'lng': '12.854407', 'id': '554472', 'lat': '49.460918', 'votes': [23, 28], 'town': 'Ždánov'},  {'lng': '12.856149', 'id': '541681', 'lat': '49.772005', 'votes': [4, 16], 'town': 'Ošelín'},  {'lng': '12.858795', 'id': '553549', 'lat': '49.369377', 'votes': [27, 58], 'town': 'Ceská Kubice'},  {'lng': '12.862784', 'id': '553433', 'lat': '49.39865', 'votes': [8, 19], 'town': 'Babylon'},  {'lng': '12.862901', 'id': '578011', 'lat': '50.068516', 'votes': [10, 17], 'town': 'Chodov'},  {'lng': '12.863046', 'id': '555631', 'lat': '49.981843', 'votes': [80, 259], 'town': 'Teplá'},  {'lng': '12.863496', 'id': '555363', 'lat': '50.328081', 'votes': [25, 88], 'town': 'Merklín'},  {'lng': '12.863617', 'id': '561193', 'lat': '49.665892', 'votes': [8, 26], 'town': 'Staré Sedlo'},  {'lng': '12.865922', 'id': '554961', 'lat': '50.228046', 'votes': [1380, 4120], 'town': 'Karlovy Vary'},  {'lng': '12.866765', 'id': '566888', 'lat': '49.843389', 'votes': [0, 7], 'town': 'Olbramov'},  {'lng': '12.868319', 'id': '554278', 'lat': '49.536865', 'votes': [14, 42], 'town': 'Srby'},  {'lng': '12.869559', 'id': '554383', 'lat': '49.435531', 'votes': [20, 45], 'town': 'Újezd'},  {'lng': '12.871003', 'id': '561011', 'lat': '49.883053', 'votes': [9, 40], 'town': 'Lestkov'},  {'lng': '12.871443', 'id': '537870', 'lat': '50.197879', 'votes': [25, 64], 'town': 'Brezová'},  {'lng': '12.871606', 'id': '537969', 'lat': '50.25534', 'votes': [23, 60], 'town': 'Otovice'},  {'lng': '12.871801', 'id': '555185', 'lat': '50.309398', 'votes': [60, 130], 'town': 'Hroznetín'},  {'lng': '12.872689', 'id': '553581', 'lat': '49.455701', 'votes': [18, 47], 'town': 'Draženov'},  {'lng': '12.880765', 'id': '553956', 'lat': '49.589377', 'votes': [7, 24], 'town': 'Mírkov'},  {'lng': '12.880817', 'id': '553913', 'lat': '49.505565', 'votes': [27, 74], 'town': 'Meclov'},  {'lng': '12.883813', 'id': '560812', 'lat': '49.816135', 'votes': [33, 116], 'town': 'Cernošín'},  {'lng': '12.889036', 'id': '555550', 'lat': '50.160391', 'votes': [8, 46], 'town': 'Stanovice'},  {'lng': '12.892292', 'id': '555444', 'lat': '50.032283', 'votes': [15, 32], 'town': 'Otrocín'},  {'lng': '12.895225', 'id': '554081', 'lat': '49.394126', 'votes': [14, 19], 'town': 'Pasecnice'},  {'lng': '12.895807', 'id': '537918', 'lat': '50.247788', 'votes': [45, 150], 'town': 'Dalovice'},  {'lng': '12.897078', 'id': '555533', 'lat': '50.267116', 'votes': [29, 86], 'town': 'Sadov'},  {'lng': '12.897575', 'id': '553891', 'lat': '49.458802', 'votes': [12, 40], 'town': 'Luženicky'},  {'lng': '12.898833', 'id': '541486', 'lat': '49.653779', 'votes': [8, 21], 'town': 'Prostibor'},  {'lng': '12.901687', 'id': '560723', 'lat': '49.726854', 'votes': [10, 32], 'town': 'Benešovice'},  {'lng': '12.903334', 'id': '555258', 'lat': '50.187435', 'votes': [24, 71], 'town': 'Kolová'},  {'lng': '12.90495', 'id': '553930', 'lat': '49.624612', 'votes': [11, 17], 'town': 'Mezholezy (dríve okres Horšovský Týn)'},  {'lng': '12.910667', 'id': '561258', 'lat': '49.766054', 'votes': [10, 45], 'town': 'Svojšín'},  {'lng': '12.912919', 'id': '554316', 'lat': '49.414743', 'votes': [16, 16], 'town': 'Stráž'},  {'lng': '12.913967', 'id': '566373', 'lat': '49.389017', 'votes': [7, 4], 'town': 'Pelechy'},  {'lng': '12.919695', 'id': '538159', 'lat': '50.283138', 'votes': [20, 44], 'town': 'Hájek'},  {'lng': '12.921236', 'id': '555304', 'lat': '50.072339', 'votes': [2, 22], 'town': 'Krásné Údolí'},  {'lng': '12.924454', 'id': '506486', 'lat': '50.409735', 'votes': [6, 12], 'town': 'Boží Dar'},  {'lng': '12.925857', 'id': '556947', 'lat': '50.179684', 'votes': [32, 56], 'town': 'Pila'},  {'lng': '12.928987', 'id': '554341', 'lat': '49.403529', 'votes': [61, 77], 'town': 'Tlumacov'},  {'lng': '12.929197', 'id': '554201', 'lat': '49.597748', 'votes': [2, 6], 'town': 'Semnevice'},  {'lng': '12.93025', 'id': '553425', 'lat': '49.440098', 'votes': [449, 1214], 'town': 'Domažlice'},  {'lng': '12.933232', 'id': '554031', 'lat': '49.420397', 'votes': [7, 9], 'town': 'Nevolice'},  {'lng': '12.93465', 'id': '555215', 'lat': '50.358463', 'votes': [111, 248], 'town': 'Jáchymov'},  {'lng': '12.941638', 'id': '541290', 'lat': '49.837512', 'votes': [5, 22], 'town': 'Horní Kozolupy'},  {'lng': '12.944049', 'id': '553671', 'lat': '49.529648', 'votes': [135, 449], 'town': 'Horšovský Týn'},  {'lng': '12.947215', 'id': '541494', 'lat': '49.878287', 'votes': [11, 22], 'town': 'Kokašice'},  {'lng': '12.950275', 'id': '555428', 'lat': '50.306284', 'votes': [500, 1673], 'town': 'Ostrov'},  {'lng': '12.951202', 'id': '553981', 'lat': '49.403141', 'votes': [52, 86], 'town': 'Mrákov'},  {'lng': '12.954738', 'id': '555681', 'lat': '50.070737', 'votes': [15, 57], 'town': 'Útvina'},  {'lng': '12.955327', 'id': '554413', 'lat': '49.623567', 'votes': [2, 17], 'town': 'Velký Malahov'},  {'lng': '12.956811', 'id': '553751', 'lat': '49.453553', 'votes': [13, 41], 'town': 'Chrastavice'},  {'lng': '12.962803', 'id': '538001', 'lat': '50.20438', 'votes': [8, 21], 'town': 'Andelská Hora'},  {'lng': '12.96492', 'id': '541664', 'lat': '49.80011', 'votes': [13, 44], 'town': 'Záchlumí'},  {'lng': '12.969668', 'id': '541460', 'lat': '49.659895', 'votes': [1, 9], 'town': 'Zhor'},  {'lng': '12.971105', 'id': '560740', 'lat': '49.907243', 'votes': [31, 77], 'town': 'Bezdružice'},  {'lng': '12.976098', 'id': '555614', 'lat': '50.236906', 'votes': [13, 37], 'town': 'Šemnice'},  {'lng': '12.97787', 'id': '560952', 'lat': '49.881153', 'votes': [44, 99], 'town': 'Konstantinovy Lázne'},  {'lng': '12.979063', 'id': '560782', 'lat': '49.829339', 'votes': [7, 20], 'town': 'Cebiv'},  {'lng': '12.97991', 'id': '560928', 'lat': '49.715298', 'votes': [27, 107], 'town': 'Kladruby'},  {'lng': '12.98072', 'id': '553948', 'lat': '49.466956', 'votes': [35, 73], 'town': 'Milavce'},  {'lng': '12.981485', 'id': '546518', 'lat': '50.418577', 'votes': [0, 8], 'town': 'Loucná pod Klínovcem'},  {'lng': '12.983249', 'id': '554456', 'lat': '49.340773', 'votes': [19, 36], 'town': 'Všeruby'},  {'lng': '12.985057', 'id': '555657', 'lat': '50.060495', 'votes': [125, 330], 'town': 'Toužim'},  {'lng': '12.987307', 'id': '554251', 'lat': '49.414514', 'votes': [16, 25], 'town': 'Spánov'},  {'lng': '12.989257', 'id': '553450', 'lat': '49.500005', 'votes': [41, 141], 'town': 'Blížejov'},  {'lng': '12.990344', 'id': '579467', 'lat': '49.656964', 'votes': [8, 13], 'town': 'Skapce'},  {'lng': '12.995304', 'id': '553506', 'lat': '49.586351', 'votes': [7, 11], 'town': 'Bukovec'},  {'lng': '12.996929', 'id': '566098', 'lat': '49.61555', 'votes': [14, 17], 'town': 'Cernovice'},  {'lng': '12.997253', 'id': '560979', 'lat': '49.80241', 'votes': [7, 18], 'town': 'Kšice'},  {'lng': '13.000277', 'id': '555347', 'lat': '50.258812', 'votes': [14, 47], 'town': 'Kyselka'},  {'lng': '13.001926', 'id': '554464', 'lat': '49.434051', 'votes': [33, 95], 'town': 'Zahorany'},  {'lng': '13.002085', 'id': '553824', 'lat': '49.402549', 'votes': [59, 108], 'town': 'Kout na Šumave'},  {'lng': '13.002741', 'id': '578045', 'lat': '50.344846', 'votes': [12, 45], 'town': 'Krásný Les'},  {'lng': '13.004092', 'id': '561215', 'lat': '49.752938', 'votes': [313, 780], 'town': 'Stríbro'},  {'lng': '13.004177', 'id': '559571', 'lat': '49.940071', 'votes': [22, 44], 'town': 'Úterý'},  {'lng': '13.005671', 'id': '555592', 'lat': '50.183106', 'votes': [4, 46], 'town': 'Stružná'},  {'lng': '13.00971', 'id': '555703', 'lat': '50.28407', 'votes': [17, 39], 'town': 'Velichov'},  {'lng': '13.015371', 'id': '541435', 'lat': '49.791591', 'votes': [6, 12], 'town': 'Únehle'},  {'lng': '13.016192', 'id': '555738', 'lat': '50.303315', 'votes': [20, 59], 'town': 'Vojkovice'},  {'lng': '13.019394', 'id': '554154', 'lat': '49.553614', 'votes': [22, 32], 'town': 'Puclice'},  {'lng': '13.021508', 'id': '553832', 'lat': '49.53915', 'votes': [10, 18], 'town': 'Krenovy'},  {'lng': '13.021737', 'id': '566080', 'lat': '49.585061', 'votes': [1, 5], 'town': 'Cecovice'},  {'lng': '13.026381', 'id': '503916', 'lat': '49.674305', 'votes': [13, 35], 'town': 'Kostelec'},  {'lng': '13.03212', 'id': '563404', 'lat': '50.492316', 'votes': [76, 242], 'town': 'Vejprty'},  {'lng': '13.035963', 'id': '560855', 'lat': '49.806949', 'votes': [12, 30], 'town': 'Erpužice'},  {'lng': '13.03876', 'id': '599131', 'lat': '49.366439', 'votes': [7, 16], 'town': 'Nová Ves'},  {'lng': '13.039676', 'id': '553786', 'lat': '49.390768', 'votes': [206, 525], 'town': 'Kdyne'},  {'lng': '13.041653', 'id': '557081', 'lat': '49.73968', 'votes': [6, 31], 'town': 'Sytno'},  {'lng': '13.041911', 'id': '579491', 'lat': '49.764378', 'votes': [6, 24], 'town': 'Vranov'},  {'lng': '13.041966', 'id': '559326', 'lat': '49.900129', 'votes': [9, 26], 'town': 'Ostrov u Bezdružic'},  {'lng': '13.04245', 'id': '566071', 'lat': '49.603405', 'votes': [2, 10], 'town': 'Všekary'},  {'lng': '13.045168', 'id': '555029', 'lat': '50.150898', 'votes': [83, 169], 'town': 'Bochov'},  {'lng': '13.046926', 'id': '554073', 'lat': '49.513164', 'votes': [28, 62], 'town': 'Osvracín'},  {'lng': '13.047612', 'id': '566764', 'lat': '49.915915', 'votes': [1, 4], 'town': 'Blažim'},  {'lng': '13.04886', 'id': '566101', 'lat': '49.584909', 'votes': [5, 17], 'town': 'Štichov'},  {'lng': '13.049582', 'id': '566136', 'lat': '49.382588', 'votes': [11, 35], 'town': 'Brnírov'},  {'lng': '13.050951', 'id': '555584', 'lat': '50.337223', 'votes': [12, 41], 'town': 'Stráž nad Ohrí'},  {'lng': '13.051723', 'id': '566179', 'lat': '49.464765', 'votes': [10, 18], 'town': 'Hradište'},  {'lng': '13.053881', 'id': '563137', 'lat': '50.438215', 'votes': [31, 127], 'town': 'Kovárská'},  {'lng': '13.05495', 'id': '559091', 'lat': '49.926239', 'votes': [0, 15], 'town': 'Krsy'},  {'lng': '13.058528', 'id': '561291', 'lat': '49.822637', 'votes': [10, 18], 'town': 'Trpísty'},  {'lng': '13.059', 'id': '558656', 'lat': '49.995009', 'votes': [18, 55], 'town': 'Bezverov'},  {'lng': '13.062554', 'id': '540668', 'lat': '49.638208', 'votes': [17, 16], 'town': 'Honezovice'},  {'lng': '13.064138', 'id': '554022', 'lat': '49.597582', 'votes': [4, 23], 'town': 'Neumer'},  {'lng': '13.069758', 'id': '554294', 'lat': '49.553479', 'votes': [172, 390], 'town': 'Stankov'},  {'lng': '13.072701', 'id': '566144', 'lat': '49.475008', 'votes': [12, 29], 'town': 'Kanice'},  {'lng': '13.072713', 'id': '561231', 'lat': '49.748549', 'votes': [9, 19], 'town': 'Sulislav'},  {'lng': '13.07295', 'id': '553841', 'lat': '49.590213', 'votes': [8, 38], 'town': 'Kvícovice'},  {'lng': '13.07428', 'id': '599174', 'lat': '49.517411', 'votes': [4, 4], 'town': 'Mocerady'},  {'lng': '13.074575', 'id': '553620', 'lat': '49.53403', 'votes': [15, 38], 'town': 'Hlohová'},  {'lng': '13.075802', 'id': '559105', 'lat': '49.874314', 'votes': [4, 17], 'town': 'Krelovice'},  {'lng': '13.077501', 'id': '599166', 'lat': '49.425073', 'votes': [5, 12], 'town': 'Nemcice'},  {'lng': '13.083164', 'id': '553743', 'lat': '49.358346', 'votes': [17, 32], 'town': 'Chodská Lhota'},  {'lng': '13.086875', 'id': '566161', 'lat': '49.443588', 'votes': [6, 10], 'town': 'Úboc'},  {'lng': '13.090445', 'id': '566462', 'lat': '49.675094', 'votes': [1, 9], 'town': 'Lochousice'},  {'lng': '13.100691', 'id': '558869', 'lat': '49.706795', 'votes': [40, 164], 'town': 'Hermanova Hut'},  {'lng': '13.100798', 'id': '556386', 'lat': '49.29304', 'votes': [18, 39], 'town': 'Chudenín'},  {'lng': '13.100856', 'id': '540064', 'lat': '49.638528', 'votes': [16, 14], 'town': 'Lisov'},  {'lng': '13.101053', 'id': '553662', 'lat': '49.569592', 'votes': [21, 30], 'town': 'Horní Kamenice'},  {'lng': '13.101293', 'id': '553654', 'lat': '49.593612', 'votes': [191, 506], 'town': 'Holýšov'},  {'lng': '13.102711', 'id': '559334', 'lat': '49.840398', 'votes': [10, 55], 'town': 'Pernarec'},  {'lng': '13.10313', 'id': '530221', 'lat': '49.728498', 'votes': [6, 21], 'town': 'Hnevnice'},  {'lng': '13.103672', 'id': '530328', 'lat': '49.812896', 'votes': [15, 14], 'town': 'Cernovice'},  {'lng': '13.103844', 'id': '553921', 'lat': '49.411716', 'votes': [8, 30], 'town': 'Mezholezy (dríve okres Domažlice)'},  {'lng': '13.105275', 'id': '554448', 'lat': '49.45087', 'votes': [6, 13], 'town': 'Všepadly'},  {'lng': '13.106564', 'id': '563269', 'lat': '50.362219', 'votes': [6, 32], 'town': 'Okounov'},  {'lng': '13.10833', 'id': '553816', 'lat': '49.487859', 'votes': [37, 97], 'town': 'Kolovec'},  {'lng': '13.1102', 'id': '563285', 'lat': '50.381661', 'votes': [35, 100], 'town': 'Perštejn'},  {'lng': '13.112114', 'id': '553867', 'lat': '49.367059', 'votes': [13, 20], 'town': 'Loucim'},  {'lng': '13.113766', 'id': '566641', 'lat': '49.52074', 'votes': [9, 28], 'town': 'Hlohovcice'},  {'lng': '13.114166', 'id': '555622', 'lat': '50.058204', 'votes': [10, 37], 'town': 'Štedrá'},  {'lng': '13.115426', 'id': '563226', 'lat': '50.421614', 'votes': [1, 11], 'town': 'Medenec'},  {'lng': '13.116598', 'id': '553514', 'lat': '49.531591', 'votes': [11, 37], 'town': 'Cermná'},  {'lng': '13.118595', 'id': '554260', 'lat': '49.508299', 'votes': [21, 41], 'town': 'Srbice'},  {'lng': '13.118597', 'id': '554391', 'lat': '49.46203', 'votes': [6, 18], 'town': 'Únejovice'},  {'lng': '13.119225', 'id': '558494', 'lat': '49.661594', 'votes': [24, 28], 'town': 'Ves Touškov'},  {'lng': '13.121374', 'id': '557731', 'lat': '49.63505', 'votes': [12, 54], 'town': 'Hradec'},  {'lng': '13.121753', 'id': '559377', 'lat': '49.778883', 'votes': [25, 44], 'town': 'Pnovany'},  {'lng': '13.126299', 'id': '538183', 'lat': '49.732334', 'votes': [6, 19], 'town': 'Kbelany'},  {'lng': '13.126847', 'id': '559393', 'lat': '49.702626', 'votes': [8, 49], 'town': 'Prehýšov'},  {'lng': '13.126963', 'id': '554405', 'lat': '49.396845', 'votes': [4, 12], 'town': 'Úsilov'},  {'lng': '13.130023', 'id': '553531', 'lat': '49.422669', 'votes': [10, 24], 'town': 'Cerníkov'},  {'lng': '13.130661', 'id': '553727', 'lat': '49.467173', 'votes': [12, 23], 'town': 'Chocomyšl'},  {'lng': '13.131105', 'id': '566365', 'lat': '49.527507', 'votes': [20, 44], 'town': 'Podevousy'},  {'lng': '13.13349', 'id': '554120', 'lat': '49.343413', 'votes': [37, 71], 'town': 'Pocinovice'},  {'lng': '13.134363', 'id': '553859', 'lat': '49.366185', 'votes': [1, 6], 'town': 'Libkov'},  {'lng': '13.134592', 'id': '540056', 'lat': '49.630505', 'votes': [7, 23], 'town': 'Strelice'},  {'lng': '13.136091', 'id': '563315', 'lat': '50.499463', 'votes': [3, 21], 'town': 'Kryštofovy Hamry'},  {'lng': '13.143533', 'id': '556831', 'lat': '49.29387', 'votes': [174, 420], 'town': 'Nýrsko'},  {'lng': '13.145508', 'id': '553778', 'lat': '49.474542', 'votes': [0, 5], 'town': 'Kanicky'},  {'lng': '13.145905', 'id': '559423', 'lat': '49.730712', 'votes': [5, 20], 'town': 'Rochlov'},  {'lng': '13.148172', 'id': '559555', 'lat': '49.760793', 'votes': [10, 48], 'town': 'Úlice'},  {'lng': '13.149188', 'id': '559563', 'lat': '49.882581', 'votes': [25, 56], 'town': 'Únešov'},  {'lng': '13.154475', 'id': '540633', 'lat': '49.672005', 'votes': [4, 17], 'town': 'Kotovice'},  {'lng': '13.155986', 'id': '558672', 'lat': '49.719715', 'votes': [36, 86], 'town': 'Blatnice'},  {'lng': '13.158752', 'id': '546372', 'lat': '49.537385', 'votes': [6, 28], 'town': 'Buková'},  {'lng': '13.160184', 'id': '541842', 'lat': '49.34477', 'votes': [2, 17], 'town': 'Beharov'},  {'lng': '13.160441', 'id': '578240', 'lat': '49.215308', 'votes': [3, 11], 'town': 'Hamry'},  {'lng': '13.162971', 'id': '555762', 'lat': '50.09192', 'votes': [61, 206], 'town': 'Žlutice'},  {'lng': '13.164627', 'id': '559261', 'lat': '49.974836', 'votes': [32, 78], 'town': 'Nectiny'},  {'lng': '13.164715', 'id': '540617', 'lat': '49.603494', 'votes': [3, 24], 'town': 'Líšina'},  {'lng': '13.164736', 'id': '558389', 'lat': '49.639089', 'votes': [133, 396], 'town': 'Stod'},  {'lng': '13.166343', 'id': '556068', 'lat': '49.365745', 'votes': [8, 38], 'town': 'Dlažov'},  {'lng': '13.17067', 'id': '555525', 'lat': '50.051554', 'votes': [19, 50], 'town': 'Pšov'},  {'lng': '13.171077', 'id': '506621', 'lat': '50.124252', 'votes': [2, 13], 'town': 'Cichalov'},  {'lng': '13.171331', 'id': '563129', 'lat': '50.384539', 'votes': [348, 1222], 'town': 'Klášterec nad Ohrí'},  {'lng': '13.172198', 'id': '563048', 'lat': '50.420698', 'votes': [3, 5], 'town': 'Domašín'},  {'lng': '13.173205', 'id': '556378', 'lat': '49.463626', 'votes': [25, 71], 'town': 'Chudenice'},  {'lng': '13.173815', 'id': '556041', 'lat': '49.275888', 'votes': [20, 54], 'town': 'Dešenice'},  {'lng': '13.174277', 'id': '555711', 'lat': '50.141538', 'votes': [6, 24], 'town': 'Verušicky'},  {'lng': '13.17674', 'id': '559369', 'lat': '49.773975', 'votes': [14, 32], 'town': 'Plešnice'},  {'lng': '13.176747', 'id': '541788', 'lat': '49.424969', 'votes': [11, 28], 'town': 'Polen'},  {'lng': '13.181095', 'id': '559172', 'lat': '49.831074', 'votes': [16, 46], 'town': 'Líštany'},  {'lng': '13.184951', 'id': '558265', 'lat': '49.531497', 'votes': [9, 20], 'town': 'Ptenín'},  {'lng': '13.186337', 'id': '558591', 'lat': '49.578373', 'votes': [20, 37], 'town': 'Zemetice'},  {'lng': '13.195064', 'id': '566594', 'lat': '49.788745', 'votes': [2, 7], 'town': 'Újezd nade Mží'},  {'lng': '13.197899', 'id': '558044', 'lat': '49.560428', 'votes': [43, 116], 'town': 'Merklín'},  {'lng': '13.20029', 'id': '556505', 'lat': '49.502698', 'votes': [5, 22], 'town': 'Krenice'},  {'lng': '13.202713', 'id': '557838', 'lat': '49.654081', 'votes': [98, 242], 'town': 'Chotešov'},  {'lng': '13.211635', 'id': '578827', 'lat': '49.880748', 'votes': [7, 16], 'town': 'Zahrádka'},  {'lng': '13.211849', 'id': '559300', 'lat': '49.711455', 'votes': [247, 725], 'town': 'Nýrany'},  {'lng': '13.213713', 'id': '546411', 'lat': '49.70137', 'votes': [3, 26], 'town': 'Úherce'},  {'lng': '13.218132', 'id': '556394', 'lat': '49.345148', 'votes': [94, 209], 'town': 'Janovice nad Úhlavou'},  {'lng': '13.219032', 'id': '566543', 'lat': '49.748017', 'votes': [8, 11], 'town': 'Myslinka'},  {'lng': '13.220243', 'id': '540293', 'lat': '49.544028', 'votes': [8, 21], 'town': 'Otešice'},  {'lng': '13.223865', 'id': '540463', 'lat': '49.533565', 'votes': [3, 6], 'town': 'Bolkov'},  {'lng': '13.225645', 'id': '559661', 'lat': '49.6784', 'votes': [64, 215], 'town': 'Zbuch'},  {'lng': '13.227462', 'id': '555801', 'lat': '49.380792', 'votes': [32, 88], 'town': 'Bezdekov'},  {'lng': '13.228395', 'id': '541753', 'lat': '49.491053', 'votes': [14, 16], 'town': 'Ježovy'},  {'lng': '13.22943', 'id': '559628', 'lat': '49.841673', 'votes': [34, 93], 'town': 'Všeruby'},  {'lng': '13.230147', 'id': '578088', 'lat': '49.518047', 'votes': [12, 16], 'town': 'Birkov'},  {'lng': '13.233184', 'id': '541851', 'lat': '49.333434', 'votes': [5, 10], 'town': 'Klenová'},  {'lng': '13.233193', 'id': '559202', 'lat': '49.991776', 'votes': [55, 130], 'town': 'Manetín'},  {'lng': '13.233726', 'id': '566675', 'lat': '50.149542', 'votes': [4, 16], 'town': 'Vrbice'},  {'lng': '13.23518', 'id': '566756', 'lat': '49.769532', 'votes': [17, 43], 'town': 'Bdeneves'},  {'lng': '13.2352', 'id': '557528', 'lat': '49.137434', 'votes': [49, 138], 'town': 'Železná Ruda'},  {'lng': '13.235343', 'id': '559491', 'lat': '49.724253', 'votes': [168, 364], 'town': 'Tlucná'},  {'lng': '13.236914', 'id': '559121', 'lat': '49.861958', 'votes': [8, 19], 'town': 'Kunejovice'},  {'lng': '13.237395', 'id': '563498', 'lat': '50.466483', 'votes': [5, 24], 'town': 'Výsluní'},  {'lng': '13.23904', 'id': '558346', 'lat': '49.576185', 'votes': [10, 68], 'town': 'Sobekury'},  {'lng': '13.244369', 'id': '530131', 'lat': '49.599751', 'votes': [11, 26], 'town': 'Prestavlky'},  {'lng': '13.246235', 'id': '557137', 'lat': '49.303261', 'votes': [60, 139], 'town': 'Strážov'},  {'lng': '13.247148', 'id': '541869', 'lat': '49.325076', 'votes': [1, 14], 'town': 'Javor'},  {'lng': '13.248115', 'id': '556106', 'lat': '49.443259', 'votes': [30, 88], 'town': 'Dolany'},  {'lng': '13.248285', 'id': '558567', 'lat': '49.64459', 'votes': [12, 54], 'town': 'Vstiš'},  {'lng': '13.248911', 'id': '558290', 'lat': '49.538546', 'votes': [10, 32], 'town': 'Roupov'},  {'lng': '13.249066', 'id': '555207', 'lat': '50.104628', 'votes': [19, 56], 'town': 'Chyše'},  {'lng': '13.251079', 'id': '559211', 'lat': '49.775872', 'votes': [53, 183], 'town': 'Mesto Touškov'},  {'lng': '13.251339', 'id': '563064', 'lat': '50.51022', 'votes': [6, 26], 'town': 'Hora Svatého Šebestiána'},  {'lng': '13.252103', 'id': '559059', 'lat': '49.763793', 'votes': [26, 80], 'town': 'Kozolupy'},  {'lng': '13.253106', 'id': '558711', 'lat': '49.799962', 'votes': [6, 30], 'town': 'Ceminy'},  {'lng': '13.254563', 'id': '578461', 'lat': '49.488397', 'votes': [4, 8], 'town': 'Mezihorí'},  {'lng': '13.254563', 'id': '555690', 'lat': '50.174132', 'votes': [6, 24], 'town': 'Valec'},  {'lng': '13.25693', 'id': '559164', 'lat': '49.69472', 'votes': [117, 274], 'town': 'Líne'},  {'lng': '13.260739', 'id': '566420', 'lat': '49.913645', 'votes': [7, 10], 'town': 'Líté'},  {'lng': '13.26277', 'id': '566608', 'lat': '50.216429', 'votes': [8, 18], 'town': 'Podboranský Rohozec'},  {'lng': '13.263118', 'id': '558931', 'lat': '49.939733', 'votes': [10, 32], 'town': 'Hvozd'},  {'lng': '13.263136', 'id': '559270', 'lat': '49.858085', 'votes': [22, 46], 'town': 'Nekmír'},  {'lng': '13.263911', 'id': '541885', 'lat': '49.347225', 'votes': [26, 43], 'town': 'Týnec'},  {'lng': '13.264107', 'id': '558877', 'lat': '49.888973', 'votes': [30, 80], 'town': 'Horní Belá'},  {'lng': '13.264544', 'id': '557668', 'lat': '49.604821', 'votes': [28, 94], 'town': 'Dnešice'},  {'lng': '13.267305', 'id': '563242', 'lat': '50.447049', 'votes': [22, 56], 'town': 'Místo'},  {'lng': '13.267527', 'id': '578070', 'lat': '49.371392', 'votes': [7, 14], 'town': 'Lomec'},  {'lng': '13.270113', 'id': '563102', 'lat': '50.376561', 'votes': [447, 1569], 'town': 'Kadan'},  {'lng': '13.271107', 'id': '566055', 'lat': '49.525435', 'votes': [18, 27], 'town': 'Vreskovice'},  {'lng': '13.273258', 'id': '558796', 'lat': '49.896156', 'votes': [17, 45], 'town': 'Dolní Belá'},  {'lng': '13.274226', 'id': '539783', 'lat': '49.579852', 'votes': [20, 53], 'town': 'Oplot'},  {'lng': '13.274872', 'id': '559288', 'lat': '49.822826', 'votes': [13, 33], 'town': 'Nevren'},  {'lng': '13.276276', 'id': '559580', 'lat': '49.729883', 'votes': [134, 333], 'town': 'Vejprnice'},  {'lng': '13.278601', 'id': '559601', 'lat': '49.756975', 'votes': [34, 73], 'town': 'Vochov'},  {'lng': '13.280458', 'id': '563218', 'lat': '50.262275', 'votes': [24, 72], 'town': 'Maštov'},  {'lng': '13.284173', 'id': '557200', 'lat': '49.481357', 'votes': [78, 183], 'town': 'Švihov'},  {'lng': '13.284643', 'id': '563323', 'lat': '50.298032', 'votes': [32, 106], 'town': 'Radonice'},  {'lng': '13.287867', 'id': '578665', 'lat': '49.926845', 'votes': [5, 18], 'town': 'Dražen'},  {'lng': '13.290362', 'id': '566446', 'lat': '49.8938', 'votes': [14, 26], 'town': 'Loza'},  {'lng': '13.292679', 'id': '540269', 'lat': '49.685958', 'votes': [8, 28], 'town': 'Nová Ves'},  {'lng': '13.292941', 'id': '555771', 'lat': '49.394639', 'votes': [911, 2384], 'town': 'Klatovy'},  {'lng': '13.293068', 'id': '557676', 'lat': '49.654824', 'votes': [230, 628], 'town': 'Dobrany'},  {'lng': '13.294445', 'id': '542172', 'lat': '49.501884', 'votes': [8, 35], 'town': 'Cervené Porící'},  {'lng': '13.296253', 'id': '557455', 'lat': '49.345504', 'votes': [59, 85], 'town': 'Vrhavec'},  {'lng': '13.298696', 'id': '563331', 'lat': '50.353172', 'votes': [10, 22], 'town': 'Rokle'},  {'lng': '13.299713', 'id': '578983', 'lat': '49.848591', 'votes': [11, 24], 'town': 'Tatiná'},  {'lng': '13.301472', 'id': '563161', 'lat': '50.486024', 'votes': [9, 29], 'town': 'Krimov'},  {'lng': '13.302334', 'id': '542156', 'lat': '49.5251', 'votes': [3, 21], 'town': 'Borovy'},  {'lng': '13.302768', 'id': '558699', 'lat': '49.885167', 'votes': [13, 20], 'town': 'Bucí'},  {'lng': '13.302822', 'id': '578797', 'lat': '49.977803', 'votes': [10, 17], 'town': 'Štichovice'},  {'lng': '13.30374', 'id': '555941', 'lat': '49.263949', 'votes': [30, 42], 'town': 'Cachrov'},  {'lng': '13.30413', 'id': '567086', 'lat': '49.811698', 'votes': [17, 22], 'town': 'Príšov'},  {'lng': '13.30524', 'id': '559083', 'lat': '49.87234', 'votes': [14, 39], 'town': 'Krašovice'},  {'lng': '13.308254', 'id': '530336', 'lat': '49.950179', 'votes': [8, 22], 'town': 'Pláne'},  {'lng': '13.312027', 'id': '566501', 'lat': '50.21673', 'votes': [8, 35], 'town': 'Nepomyšl'},  {'lng': '13.312043', 'id': '563439', 'lat': '50.300971', 'votes': [14, 61], 'town': 'Vilémov'},  {'lng': '13.312195', 'id': '559245', 'lat': '49.89543', 'votes': [17, 49], 'town': 'Mrtník'},  {'lng': '13.312571', 'id': '555797', 'lat': '49.3016', 'votes': [20, 63], 'town': 'Bešiny'},  {'lng': '13.313179', 'id': '559709', 'lat': '49.839998', 'votes': [21, 38], 'town': 'Žilov'},  {'lng': '13.313189', 'id': '566438', 'lat': '50.132075', 'votes': [43, 169], 'town': 'Lubenec'},  {'lng': '13.313228', 'id': '557781', 'lat': '49.632558', 'votes': [89, 246], 'town': 'Chlumcany'},  {'lng': '13.315739', 'id': '558028', 'lat': '49.546643', 'votes': [50, 93], 'town': 'Lužany'},  {'lng': '13.316569', 'id': '542296', 'lat': '49.531545', 'votes': [15, 29], 'town': 'Nezdice'},  {'lng': '13.317664', 'id': '558940', 'lat': '49.792944', 'votes': [32, 75], 'town': 'Chotíkov'},  {'lng': '13.321955', 'id': '563111', 'lat': '50.57773', 'votes': [10, 23], 'town': 'Kalek'},  {'lng': '13.323852', 'id': '559504', 'lat': '49.861044', 'votes': [39, 84], 'town': 'Trnová'},  {'lng': '13.326972', 'id': '539821', 'lat': '49.612318', 'votes': [18, 46], 'town': 'Horní Lukavice'},  {'lng': '13.328425', 'id': '559148', 'lat': '49.82163', 'votes': [26, 82], 'town': 'Ledce'},  {'lng': '13.333378', 'id': '563200', 'lat': '50.44617', 'votes': [25, 83], 'town': 'Málkov'},  {'lng': '13.333499', 'id': '558249', 'lat': '49.572982', 'votes': [278, 734], 'town': 'Preštice'},  {'lng': '13.339352', 'id': '558257', 'lat': '49.562029', 'votes': [54, 131], 'town': 'Príchovice'},  {'lng': '13.344231', 'id': '557684', 'lat': '49.601922', 'votes': [35, 88], 'town': 'Dolní Lukavice'},  {'lng': '13.346898', 'id': '578061', 'lat': '49.422331', 'votes': [2, 5], 'town': 'Ostretice'},  {'lng': '13.347797', 'id': '559482', 'lat': '50.085737', 'votes': [4, 13], 'town': 'Tis u Blatna'},  {'lng': '13.34971', 'id': '563293', 'lat': '50.321112', 'votes': [3, 8], 'town': 'Petipsy'},  {'lng': '13.354378', 'id': '557005', 'lat': '49.447466', 'votes': [37, 116], 'town': 'Predslav'},  {'lng': '13.355579', 'id': '558885', 'lat': '49.840122', 'votes': [163, 447], 'town': 'Horní Bríza'},  {'lng': '13.356898', 'id': '556718', 'lat': '49.360369', 'votes': [30, 63], 'town': 'Mochtín'},  {'lng': '13.358057', 'id': '562998', 'lat': '50.511692', 'votes': [11, 40], 'town': 'Blatno'},  {'lng': '13.359239', 'id': '563021', 'lat': '50.447676', 'votes': [24, 58], 'town': 'Cernovice'},  {'lng': '13.360249', 'id': '566691', 'lat': '49.511885', 'votes': [8, 16], 'town': 'Vlcí'},  {'lng': '13.360877', 'id': '556343', 'lat': '49.319892', 'votes': [7, 18], 'town': 'Chlistov'},  {'lng': '13.361606', 'id': '555835', 'lat': '49.409894', 'votes': [21, 56], 'town': 'Bolešiny'},  {'lng': '13.364394', 'id': '559237', 'lat': '49.98524', 'votes': [34, 80], 'town': 'Mladotice'},  {'lng': '13.36485', 'id': '546071', 'lat': '50.305153', 'votes': [9, 35], 'town': 'Racetice'},  {'lng': '13.365595', 'id': '557871', 'lat': '49.493706', 'votes': [10, 31], 'town': 'Kbel'},  {'lng': '13.367765', 'id': '566306', 'lat': '50.254164', 'votes': [21, 57], 'town': 'Krásný Dvur'},  {'lng': '13.367953', 'id': '540421', 'lat': '49.547817', 'votes': [4, 18], 'town': 'Radkovice'},  {'lng': '13.373728', 'id': '559431', 'lat': '49.908333', 'votes': [14, 58], 'town': 'Rybnice'},  {'lng': '13.374618', 'id': '563412', 'lat': '50.269664', 'votes': [7, 13], 'town': 'Veliká Ves'},  {'lng': '13.375019', 'id': '559695', 'lat': '50.044912', 'votes': [55, 149], 'town': 'Žihle'},  {'lng': '13.377944', 'id': '556084', 'lat': '49.105131', 'votes': [5, 9], 'town': 'Prášily'},  {'lng': '13.378525', 'id': '541915', 'lat': '49.390672', 'votes': [3, 8], 'town': 'Obytce'},  {'lng': '13.379858', 'id': '566934', 'lat': '50.179988', 'votes': [37, 191], 'town': 'Vroutek'},  {'lng': '13.382039', 'id': '558486', 'lat': '49.677787', 'votes': [14, 53], 'town': 'Útušice'},  {'lng': '13.382211', 'id': '566781', 'lat': '50.068979', 'votes': [4, 11], 'town': 'Pastuchovice'},  {'lng': '13.382948', 'id': '559008', 'lat': '49.893131', 'votes': [168, 379], 'town': 'Kaznejov'},  {'lng': '13.385565', 'id': '563188', 'lat': '50.315889', 'votes': [17, 23], 'town': 'Libedice'},  {'lng': '13.38619', 'id': '557722', 'lat': '49.531466', 'votes': [10, 41], 'town': 'Horšice'},  {'lng': '13.387038', 'id': '541745', 'lat': '49.406794', 'votes': [5, 18], 'town': 'Myslovice'},  {'lng': '13.389697', 'id': '566004', 'lat': '50.096919', 'votes': [15, 47], 'town': 'Blatno'},  {'lng': '13.389747', 'id': '557366', 'lat': '49.265191', 'votes': [27, 83], 'town': 'Velhartice'},  {'lng': '13.390354', 'id': '559351', 'lat': '49.93449', 'votes': [126, 316], 'town': 'Plasy'},  {'lng': '13.390715', 'id': '567078', 'lat': '50.632003', 'votes': [4, 13], 'town': 'Brandov'},  {'lng': '13.391817', 'id': '563340', 'lat': '50.440933', 'votes': [45, 127], 'town': 'Sporice'},  {'lng': '13.393405', 'id': '539945', 'lat': '49.552859', 'votes': [15, 25], 'town': 'Dolce'},  {'lng': '13.394994', 'id': '559521', 'lat': '49.815838', 'votes': [194, 492], 'town': 'Tremošná'},  {'lng': '13.395053', 'id': '556203', 'lat': '49.237844', 'votes': [16, 42], 'town': 'Hlavnovice'},  {'lng': '13.39656', 'id': '540412', 'lat': '49.624387', 'votes': [8, 29], 'town': 'Predenice'},  {'lng': '13.397883', 'id': '557641', 'lat': '49.647935', 'votes': [29, 70], 'town': 'Cižice'},  {'lng': '13.39935', 'id': '530247', 'lat': '50.015998', 'votes': [4, 15], 'town': 'Potvorov'},  {'lng': '13.39963', 'id': '558435', 'lat': '49.670514', 'votes': [73, 196], 'town': 'Štenovice'},  {'lng': '13.401598', 'id': '578924', 'lat': '50.074309', 'votes': [2, 12], 'town': 'Velecín'},  {'lng': '13.402886', 'id': '556637', 'lat': '49.480086', 'votes': [43, 134], 'town': 'Mecín'},  {'lng': '13.410816', 'id': '562971', 'lat': '50.462475', 'votes': [1312, 4671], 'town': 'Chomutov'},  {'lng': '13.411917', 'id': '566616', 'lat': '50.229368', 'votes': [200, 573], 'town': 'Podborany'},  {'lng': '13.413332', 'id': '563005', 'lat': '50.540164', 'votes': [7, 22], 'town': 'Bolebor'},  {'lng': '13.413608', 'id': '559318', 'lat': '49.889468', 'votes': [26, 70], 'town': 'Obora'},  {'lng': '13.414492', 'id': '558303', 'lat': '49.579863', 'votes': [39, 104], 'town': 'Rence'},  {'lng': '13.417596', 'id': '539929', 'lat': '49.521086', 'votes': [4, 3], 'town': 'Týnište'},  {'lng': '13.42118', 'id': '563013', 'lat': '50.401855', 'votes': [20, 114], 'town': 'Brezno'},  {'lng': '13.424839', 'id': '530239', 'lat': '50.017857', 'votes': [2, 4], 'town': 'Bílov'},  {'lng': '13.425787', 'id': '542024', 'lat': '49.342402', 'votes': [7, 16], 'town': 'Cíhan'},  {'lng': '13.426381', 'id': '559679', 'lat': '49.807701', 'votes': [85, 246], 'town': 'Zruc-Senec'},  {'lng': '13.426596', 'id': '566314', 'lat': '50.17437', 'votes': [58, 189], 'town': 'Kryry'},  {'lng': '13.426766', 'id': '539741', 'lat': '49.649664', 'votes': [27, 53], 'town': 'Štenovický Borek'},  {'lng': '13.427176', 'id': '530271', 'lat': '50.006272', 'votes': [2, 11], 'town': 'Sedlec'},  {'lng': '13.429091', 'id': '563056', 'lat': '50.43078', 'votes': [29, 100], 'town': 'Droužkovice'},  {'lng': '13.429138', 'id': '540340', 'lat': '49.630091', 'votes': [12, 41], 'town': 'Nebílovy'},  {'lng': '13.42971', 'id': '558745', 'lat': '49.828405', 'votes': [18, 53], 'town': 'Ceská Bríza'},  {'lng': '13.430375', 'id': '563081', 'lat': '50.332774', 'votes': [12, 46], 'town': 'Chbany'},  {'lng': '13.430581', 'id': '558117', 'lat': '49.616365', 'votes': [11, 33], 'town': 'Netunice'},  {'lng': '13.431391', 'id': '539937', 'lat': '49.510459', 'votes': [4, 24], 'town': 'Skašov'},  {'lng': '13.431915', 'id': '598500', 'lat': '50.091601', 'votes': [2, 15], 'town': 'Krty'},  {'lng': '13.436718', 'id': '567167', 'lat': '50.606309', 'votes': [12, 40], 'town': 'Hora Svaté Kateriny'},  {'lng': '13.439178', 'id': '556467', 'lat': '49.299201', 'votes': [42, 151], 'town': 'Kolinec'},  {'lng': '13.440793', 'id': '556921', 'lat': '49.21865', 'votes': [22, 53], 'town': 'Petrovice u Sušice'},  {'lng': '13.44146', 'id': '558915', 'lat': '49.849068', 'votes': [47, 87], 'town': 'Hromnice'},  {'lng': '13.446414', 'id': '566560', 'lat': '50.127518', 'votes': [18, 54], 'town': 'Petrohrad'},  {'lng': '13.447754', 'id': '563099', 'lat': '50.500469', 'votes': [470, 1621], 'town': 'Jirkov'},  {'lng': '13.448334', 'id': '558001', 'lat': '49.669193', 'votes': [32, 96], 'town': 'Losiná'},  {'lng': '13.448719', 'id': '558834', 'lat': '49.797409', 'votes': [18, 57], 'town': 'Druztová'},  {'lng': '13.450682', 'id': '530280', 'lat': '50.021881', 'votes': [16, 25], 'town': 'Vysoká Libyne'},  {'lng': '13.450696', 'id': '563277', 'lat': '50.480817', 'votes': [20, 80], 'town': 'Otvice'},  {'lng': '13.454553', 'id': '556181', 'lat': '49.169479', 'votes': [26, 79], 'town': 'Hartmanice'},  {'lng': '13.454798', 'id': '556726', 'lat': '49.275356', 'votes': [8, 27], 'town': 'Mokrosuky'},  {'lng': '13.455283', 'id': '557951', 'lat': '49.539895', 'votes': [31, 83], 'town': 'Letiny'},  {'lng': '13.457378', 'id': '563382', 'lat': '50.4406', 'votes': [25, 113], 'town': 'Údlice'},  {'lng': '13.457712', 'id': '578321', 'lat': '49.417513', 'votes': [5, 13], 'town': 'Újezd u Plánice'},  {'lng': '13.45839', 'id': '558401', 'lat': '49.611781', 'votes': [22, 47], 'town': 'Strížovice'},  {'lng': '13.459613', 'id': '598518', 'lat': '50.058447', 'votes': [0, 5], 'town': 'Ždár'},  {'lng': '13.460422', 'id': '566527', 'lat': '50.198553', 'votes': [6, 22], 'town': 'Ocihov'},  {'lng': '13.461229', 'id': '563471', 'lat': '50.41994', 'votes': [7, 32], 'town': 'Všehrdy'},  {'lng': '13.46256', 'id': '566969', 'lat': '49.96175', 'votes': [32, 46], 'town': 'Výrov'},  {'lng': '13.464385', 'id': '559024', 'lat': '49.943196', 'votes': [10, 23], 'town': 'Kopidlo'},  {'lng': '13.464982', 'id': '540561', 'lat': '49.730435', 'votes': [21, 56], 'town': 'Letkov'},  {'lng': '13.468365', 'id': '558770', 'lat': '49.884553', 'votes': [22, 69], 'town': 'Dobríc'},  {'lng': '13.469483', 'id': '541834', 'lat': '50.09703', 'votes': [70, 186], 'town': 'Jesenice'},  {'lng': '13.46997', 'id': '542059', 'lat': '49.431493', 'votes': [4, 5], 'town': 'Mlýnské Struhadlo'},  {'lng': '13.470008', 'id': '540528', 'lat': '49.584294', 'votes': [1, 8], 'town': 'Únetice'},  {'lng': '13.470252', 'id': '563501', 'lat': '50.520274', 'votes': [33, 104], 'town': 'Vysoká Pec'},  {'lng': '13.47106', 'id': '556955', 'lat': '49.389928', 'votes': [84, 177], 'town': 'Plánice'},  {'lng': '13.471201', 'id': '566021', 'lat': '50.217335', 'votes': [40, 101], 'town': 'Blšany'},  {'lng': '13.472357', 'id': '558788', 'lat': '49.807816', 'votes': [7, 31], 'town': 'Dolany'},  {'lng': '13.472432', 'id': '540251', 'lat': '49.557153', 'votes': [4, 12], 'town': 'Drahkov'},  {'lng': '13.473502', 'id': '558371', 'lat': '49.697678', 'votes': [181, 425], 'town': 'Starý Plzenec'},  {'lng': '13.474278', 'id': '558982', 'lat': '49.872462', 'votes': [3, 12], 'town': 'Jarov'},  {'lng': '13.474752', 'id': '559032', 'lat': '49.900504', 'votes': [6, 24], 'town': 'Koryta'},  {'lng': '13.474828', 'id': '566519', 'lat': '50.339639', 'votes': [17, 45], 'town': 'Nové Sedlo'},  {'lng': '13.475659', 'id': '529711', 'lat': '50.080125', 'votes': [1, 9], 'town': 'Drahouš'},  {'lng': '13.475945', 'id': '557846', 'lat': '49.642987', 'votes': [21, 48], 'town': 'Chválenice'},  {'lng': '13.476138', 'id': '578771', 'lat': '49.930381', 'votes': [6, 14], 'town': 'Kocín'},  {'lng': '13.477059', 'id': '553590', 'lat': '49.654917', 'votes': [11, 13], 'town': 'Nezbavetice'},  {'lng': '13.47853', 'id': '546160', 'lat': '50.424187', 'votes': [6, 17], 'town': 'Nezabylice'},  {'lng': '13.479197', 'id': '557773', 'lat': '49.605197', 'votes': [13, 28], 'town': 'Chlum'},  {'lng': '13.480445', 'id': '557111', 'lat': '49.087184', 'votes': [7, 34], 'town': 'Srní'},  {'lng': '13.481674', 'id': '542083', 'lat': '49.361819', 'votes': [8, 14], 'town': 'Hnacov'},  {'lng': '13.482443', 'id': '567329', 'lat': '50.59474', 'votes': [20, 24], 'town': 'Nová Ves v Horách'},  {'lng': '13.48487', 'id': '546062', 'lat': '50.463209', 'votes': [3, 15], 'town': 'Pesvice'},  {'lng': '13.486203', 'id': '559130', 'lat': '49.753246', 'votes': [39, 85], 'town': 'Kyšice'},  {'lng': '13.487473', 'id': '559075', 'lat': '49.981917', 'votes': [162, 398], 'town': 'Kralovice'},  {'lng': '13.490434', 'id': '557463', 'lat': '49.337357', 'votes': [13, 45], 'town': 'Zavlekov'},  {'lng': '13.491501', 'id': '558630', 'lat': '49.484571', 'votes': [57, 110], 'town': 'Žinkovy'},  {'lng': '13.491502', 'id': '558851', 'lat': '49.777347', 'votes': [48, 130], 'town': 'Dýšina'},  {'lng': '13.493581', 'id': '558966', 'lat': '49.793198', 'votes': [51, 223], 'town': 'Chrást'},  {'lng': '13.493902', 'id': '530581', 'lat': '50.308745', 'votes': [6, 20], 'town': 'Ceradice'},  {'lng': '13.495618', 'id': '563463', 'lat': '50.48816', 'votes': [9, 27], 'town': 'Vrskman'},  {'lng': '13.495656', 'id': '540706', 'lat': '49.614616', 'votes': [6, 8], 'town': 'Vlctejn'},  {'lng': '13.49621', 'id': '558800', 'lat': '49.913736', 'votes': [3, 9], 'town': 'Dolní Hradište'},  {'lng': '13.498358', 'id': '563072', 'lat': '50.387252', 'votes': [6, 25], 'town': 'Hrušovany'},  {'lng': '13.498498', 'id': '556301', 'lat': '49.261273', 'votes': [38, 110], 'town': 'Hrádek'},  {'lng': '13.499316', 'id': '542148', 'lat': '49.024065', 'votes': [6, 10], 'town': 'Modrava'},  {'lng': '13.503939', 'id': '558427', 'lat': '49.675551', 'votes': [129, 275], 'town': 'Štáhlavy'},  {'lng': '13.504891', 'id': '558311', 'lat': '49.587967', 'votes': [10, 25], 'town': 'Sec'},  {'lng': '13.505896', 'id': '562980', 'lat': '50.424551', 'votes': [5, 22], 'town': 'Bílence'},  {'lng': '13.507589', 'id': '578541', 'lat': '49.521084', 'votes': [18, 38], 'town': 'Jarov'},  {'lng': '13.507595', 'id': '563480', 'lat': '50.45736', 'votes': [2, 15], 'town': 'Všestudy'},  {'lng': '13.509256', 'id': '556076', 'lat': '49.196275', 'votes': [28, 93], 'town': 'Dlouhá Ves'},  {'lng': '13.509822', 'id': '558460', 'lat': '49.719067', 'votes': [37, 87], 'town': 'Tymákov'},  {'lng': '13.510032', 'id': '565199', 'lat': '50.157148', 'votes': [2, 10], 'town': 'Kolešov'},  {'lng': '13.51045', 'id': '553522', 'lat': '49.334902', 'votes': [7, 26], 'town': 'Tužice'},  {'lng': '13.512664', 'id': '558991', 'lat': '49.870607', 'votes': [4, 13], 'town': 'Kacerov'},  {'lng': '13.513486', 'id': '530590', 'lat': '50.333384', 'votes': [14, 59], 'town': 'Libocany'},  {'lng': '13.514258', 'id': '559792', 'lat': '49.746083', 'votes': [25, 69], 'town': 'Ejpovice'},  {'lng': '13.515077', 'id': '566381', 'lat': '50.254705', 'votes': [6, 23], 'town': 'Liborice'},  {'lng': '13.51508', 'id': '540722', 'lat': '49.791878', 'votes': [11, 28], 'town': 'Smedcice'},  {'lng': '13.515168', 'id': '557021', 'lat': '49.140532', 'votes': [7, 17], 'town': 'Rejštejn'},  {'lng': '13.515576', 'id': '558125', 'lat': '49.44099', 'votes': [44, 129], 'town': 'Neurazy'},  {'lng': '13.515657', 'id': '578312', 'lat': '49.381091', 'votes': [5, 16], 'town': 'Zborovy'},  {'lng': '13.519619', 'id': '558141', 'lat': '49.640428', 'votes': [85, 226], 'town': 'Nezvestice'},  {'lng': '13.519814', 'id': '558583', 'lat': '49.606952', 'votes': [24, 69], 'town': 'Zdemyslice'},  {'lng': '13.520045', 'id': '557803', 'lat': '49.54754', 'votes': [30, 74], 'town': 'Chocenice'},  {'lng': '13.520263', 'id': '557153', 'lat': '49.231444', 'votes': [443, 1113], 'town': 'Sušice'},  {'lng': '13.524463', 'id': '559253', 'lat': '49.820691', 'votes': [0, 5], 'town': 'Nadryby'},  {'lng': '13.524549', 'id': '540641', 'lat': '49.715052', 'votes': [14, 30], 'town': 'Mokrouše'},  {'lng': '13.527815', 'id': '578606', 'lat': '49.701823', 'votes': [9, 27], 'town': 'Lhuta'},  {'lng': '13.530536', 'id': '563358', 'lat': '50.47102', 'votes': [36, 111], 'town': 'Strupcice'},  {'lng': '13.530724', 'id': '530182', 'lat': '49.629971', 'votes': [27, 49], 'town': 'Žákava'},  {'lng': '13.531404', 'id': '541737', 'lat': '50.155615', 'votes': [20, 45], 'town': 'Horovicky'},  {'lng': '13.532648', 'id': '539716', 'lat': '49.519484', 'votes': [12, 19], 'town': 'Mecholupy'},  {'lng': '13.534657', 'id': '559750', 'lat': '49.795522', 'votes': [21, 73], 'town': 'Bušovice'},  {'lng': '13.537369', 'id': '566454', 'lat': '50.266664', 'votes': [28, 75], 'town': 'Mecholupy'},  {'lng': '13.539274', 'id': '559911', 'lat': '49.753439', 'votes': [15, 37], 'town': 'Klabava'},  {'lng': '13.539988', 'id': '567019', 'lat': '50.367407', 'votes': [10, 42], 'town': 'Žiželice'},  {'lng': '13.540092', 'id': '557587', 'lat': '49.582196', 'votes': [173, 407], 'town': 'Blovice'},  {'lng': '13.541065', 'id': '559067', 'lat': '49.993892', 'votes': [63, 117], 'town': 'Kožlany'},  {'lng': '13.541446', 'id': '558231', 'lat': '49.50344', 'votes': [8, 34], 'town': 'Prádlo'},  {'lng': '13.542406', 'id': '559041', 'lat': '49.931236', 'votes': [13, 70], 'town': 'Kozojedy'},  {'lng': '13.544224', 'id': '566985', 'lat': '50.33003', 'votes': [539, 1698], 'town': 'Žatec'},  {'lng': '13.544242', 'id': '559954', 'lat': '49.916812', 'votes': [14, 26], 'town': 'Liblín'},  {'lng': '13.544922', 'id': '556751', 'lat': '49.330902', 'votes': [40, 122], 'town': 'Nalžovské Hory'},  {'lng': '13.54717', 'id': '567175', 'lat': '50.573094', 'votes': [48, 174], 'town': 'Horní Jiretín'},  {'lng': '13.547374', 'id': '567108', 'lat': '50.707483', 'votes': [5, 12], 'town': 'Ceský Jiretín'},  {'lng': '13.548117', 'id': '567191', 'lat': '50.638242', 'votes': [7, 10], 'town': 'Klíny'},  {'lng': '13.548892', 'id': '542202', 'lat': '50.111541', 'votes': [19, 75], 'town': 'Orácov'},  {'lng': '13.551547', 'id': '529699', 'lat': '50.063631', 'votes': [0, 14], 'town': 'Velká Chmelištná'},  {'lng': '13.554372', 'id': '565181', 'lat': '50.171177', 'votes': [7, 18], 'town': 'Dekov'},  {'lng': '13.555537', 'id': '553565', 'lat': '49.43569', 'votes': [4, 11], 'town': 'Polánka'},  {'lng': '13.556161', 'id': '556432', 'lat': '49.142892', 'votes': [64, 173], 'town': 'Kašperské Hory'},  {'lng': '13.556357', 'id': '578223', 'lat': '49.41075', 'votes': [5, 4], 'town': 'Nehodiv'},  {'lng': '13.556987', 'id': '566489', 'lat': '49.953671', 'votes': [5, 11], 'town': 'Brodeslavy'},  {'lng': '13.557973', 'id': '542091', 'lat': '49.057613', 'votes': [0, 11], 'town': 'Horská Kvilda'},  {'lng': '13.560194', 'id': '567299', 'lat': '50.462488', 'votes': [4, 28], 'town': 'Malé Brezno'},  {'lng': '13.560662', 'id': '566799', 'lat': '49.817886', 'votes': [16, 36], 'town': 'Všenice'},  {'lng': '13.561047', 'id': '530123', 'lat': '49.261293', 'votes': [5, 6], 'town': 'Dobršín'},  {'lng': '13.562986', 'id': '566187', 'lat': '50.277428', 'votes': [16, 60], 'town': 'Holedec'},  {'lng': '13.56367', 'id': '566870', 'lat': '50.402578', 'votes': [5, 36], 'town': 'Velemyšleves'},  {'lng': '13.564289', 'id': '565326', 'lat': '50.109829', 'votes': [1, 3], 'town': 'Švihov'},  {'lng': '13.564582', 'id': '553611', 'lat': '49.766436', 'votes': [22, 60], 'town': 'Litohlavy'},  {'lng': '13.56594', 'id': '530140', 'lat': '49.643064', 'votes': [9, 20], 'town': 'Milínov'},  {'lng': '13.566899', 'id': '566632', 'lat': '49.975444', 'votes': [3, 8], 'town': 'Cerníkovice'},  {'lng': '13.569501', 'id': '546551', 'lat': '49.859731', 'votes': [4, 28], 'town': 'Újezd u Svatého Kríže'},  {'lng': '13.570479', 'id': '541699', 'lat': '50.027961', 'votes': [33, 80], 'town': 'Cistá'},  {'lng': '13.571038', 'id': '543128', 'lat': '50.349821', 'votes': [23, 71], 'town': 'Stankovice'},  {'lng': '13.572101', 'id': '558605', 'lat': '49.551832', 'votes': [22, 69], 'town': 'Ždírec'},  {'lng': '13.572426', 'id': '556734', 'lat': '49.414206', 'votes': [30, 76], 'town': 'Myslív'},  {'lng': '13.574382', 'id': '559741', 'lat': '49.914574', 'votes': [5, 19], 'town': 'Bujesily'},  {'lng': '13.574884', 'id': '566837', 'lat': '49.876932', 'votes': [2, 14], 'town': 'Nemcovice'},  {'lng': '13.575668', 'id': '566471', 'lat': '49.937898', 'votes': [9, 21], 'town': 'Bohy'},  {'lng': '13.57667', 'id': '557897', 'lat': '49.501902', 'votes': [5, 16], 'town': 'Klášter'},  {'lng': '13.576959', 'id': '557943', 'lat': '49.446075', 'votes': [5, 7], 'town': 'Kramolín'},  {'lng': '13.578157', 'id': '551686', 'lat': '49.230081', 'votes': [3, 12], 'town': 'Podmokly'},  {'lng': '13.57833', 'id': '559725', 'lat': '49.837001', 'votes': [76, 191], 'town': 'Brasy'},  {'lng': '13.579578', 'id': '550337', 'lat': '49.01925', 'votes': [12, 20], 'town': 'Kvilda'},  {'lng': '13.581605', 'id': '559946', 'lat': '49.889934', 'votes': [2, 12], 'town': 'Lhotka u Radnic'},  {'lng': '13.581944', 'id': '566942', 'lat': '49.700323', 'votes': [19, 26], 'town': 'Raková'},  {'lng': '13.582254', 'id': '558109', 'lat': '49.486162', 'votes': [148, 411], 'town': 'Nepomuk'},  {'lng': '13.582786', 'id': '565041', 'lat': '50.006854', 'votes': [4, 13], 'town': 'Brežany'},  {'lng': '13.582827', 'id': '540200', 'lat': '49.464991', 'votes': [1, 8], 'town': 'Kozlovice'},  {'lng': '13.584665', 'id': '555894', 'lat': '49.283361', 'votes': [20, 28], 'town': 'Budetice'},  {'lng': '13.585069', 'id': '566497', 'lat': '49.963674', 'votes': [2, 8], 'town': 'Všehrdy'},  {'lng': '13.585826', 'id': '565504', 'lat': '50.07917', 'votes': [6, 17], 'town': 'Rerichy'},  {'lng': '13.590931', 'id': '560057', 'lat': '49.778008', 'votes': [48, 126], 'town': 'Osek'},  {'lng': '13.59138', 'id': '542270', 'lat': '50.108391', 'votes': [13, 44], 'town': 'Pšovlky'},  {'lng': '13.592217', 'id': '579033', 'lat': '49.658935', 'votes': [4, 18], 'town': 'Kornatice'},  {'lng': '13.59441', 'id': '565512', 'lat': '50.063685', 'votes': [1, 8], 'town': 'Václavy'},  {'lng': '13.595553', 'id': '559717', 'lat': '49.742199', 'votes': [434, 1295], 'town': 'Rokycany'},  {'lng': '13.59623', 'id': '566811', 'lat': '49.88106', 'votes': [2, 9], 'town': 'Kamenec'},  {'lng': '13.596442', 'id': '556319', 'lat': '49.323098', 'votes': [21, 42], 'town': 'Hradešice'},  {'lng': '13.596536', 'id': '541095', 'lat': '49.824283', 'votes': [8, 13], 'town': 'Bezdekov'},  {'lng': '13.596792', 'id': '559733', 'lat': '49.807536', 'votes': [7, 27], 'town': 'Brezina'},  {'lng': '13.598699', 'id': '567311', 'lat': '50.621154', 'votes': [188, 591], 'town': 'Meziborí'},  {'lng': '13.598768', 'id': '567141', 'lat': '50.450043', 'votes': [46, 67], 'town': 'Havran'},  {'lng': '13.602658', 'id': '541729', 'lat': '50.162284', 'votes': [14, 42], 'town': 'Horesedly'},  {'lng': '13.602825', 'id': '560235', 'lat': '49.695077', 'votes': [5, 19], 'town': 'Veselá'},  {'lng': '13.60329', 'id': '540676', 'lat': '49.518947', 'votes': [5, 23], 'town': 'Srby'},  {'lng': '13.604159', 'id': '530603', 'lat': '50.321201', 'votes': [1, 3], 'town': 'Zálužice'},  {'lng': '13.604368', 'id': '558052', 'lat': '49.46949', 'votes': [14, 56], 'town': 'Milec'},  {'lng': '13.605562', 'id': '558362', 'lat': '49.613708', 'votes': [102, 264], 'town': 'Spálené Porící'},  {'lng': '13.605635', 'id': '541192', 'lat': '49.685448', 'votes': [10, 23], 'town': 'Nevid'},  {'lng': '13.605703', 'id': '560120', 'lat': '49.856772', 'votes': [88, 202], 'town': 'Radnice'},  {'lng': '13.605887', 'id': '578495', 'lat': '49.253639', 'votes': [6, 15], 'town': 'Címice'},  {'lng': '13.606611', 'id': '578177', 'lat': '49.415828', 'votes': [1, 11], 'town': 'Kovcín'},  {'lng': '13.607009', 'id': '566683', 'lat': '49.224668', 'votes': [8, 18], 'town': 'Dražovice'},  {'lng': '13.60949', 'id': '558010', 'lat': '49.562545', 'votes': [4, 16], 'town': 'Lounová'},  {'lng': '13.609804', 'id': '566128', 'lat': '50.230632', 'votes': [7, 22], 'town': 'Deštnice'},  {'lng': '13.610276', 'id': '541893', 'lat': '50.139642', 'votes': [45, 87], 'town': 'Kolešovice'},  {'lng': '13.610876', 'id': '565130', 'lat': '50.039655', 'votes': [3, 12], 'town': 'Všesulov'},  {'lng': '13.611726', 'id': '567256', 'lat': '50.598837', 'votes': [611, 2124], 'town': 'Litvínov'},  {'lng': '13.612069', 'id': '578592', 'lat': '49.483372', 'votes': [1, 8], 'town': 'Trebcice'},  {'lng': '13.612129', 'id': '560111', 'lat': '49.834692', 'votes': [3, 24], 'town': 'Prívetice'},  {'lng': '13.612279', 'id': '556815', 'lat': '49.172566', 'votes': [14, 38], 'town': 'Nezdice na Šumave'},  {'lng': '13.614709', 'id': '566730', 'lat': '49.967874', 'votes': [5, 13], 'town': 'Holovousy'},  {'lng': '13.616453', 'id': '598496', 'lat': '50.014319', 'votes': [14, 38], 'town': 'Šípy'},  {'lng': '13.617354', 'id': '541923', 'lat': '49.348756', 'votes': [9, 31], 'town': 'Brežany'},  {'lng': '13.61761', 'id': '557013', 'lat': '49.280741', 'votes': [22, 45], 'town': 'Rabí'},  {'lng': '13.618756', 'id': '541150', 'lat': '49.723665', 'votes': [25, 69], 'town': 'Kamenný Újezd'},  {'lng': '13.618881', 'id': '558559', 'lat': '49.507957', 'votes': [6, 22], 'town': 'Vrcen'},  {'lng': '13.620298', 'id': '542601', 'lat': '50.056691', 'votes': [20, 38], 'town': 'Zavidov'},  {'lng': '13.620458', 'id': '529893', 'lat': '49.12543', 'votes': [2, 9], 'town': 'Nicov'},  {'lng': '13.620909', 'id': '542458', 'lat': '50.190015', 'votes': [14, 24], 'town': 'Svojetín'},  {'lng': '13.621461', 'id': '566357', 'lat': '50.293561', 'votes': [9, 56], 'town': 'Libešice'},  {'lng': '13.621946', 'id': '579084', 'lat': '49.655814', 'votes': [0, 9], 'town': 'Mešno'},  {'lng': '13.623046', 'id': '560251', 'lat': '49.776065', 'votes': [80, 131], 'town': 'Volduchy'},  {'lng': '13.624178', 'id': '579017', 'lat': '49.666929', 'votes': [7, 13], 'town': 'Kakejcov'},  {'lng': '13.625024', 'id': '566390', 'lat': '49.948228', 'votes': [4, 2], 'town': 'Hlince'},  {'lng': '13.625397', 'id': '556912', 'lat': '49.387888', 'votes': [33, 100], 'town': 'Pacejov'},  {'lng': '13.625745', 'id': '558095', 'lat': '49.434554', 'votes': [7, 30], 'town': 'Nekvasovy'},  {'lng': '13.626514', 'id': '578614', 'lat': '49.492478', 'votes': [8, 11], 'town': 'Tojice'},  {'lng': '13.626925', 'id': '541958', 'lat': '49.400826', 'votes': [17, 40], 'town': 'Olšany'},  {'lng': '13.627845', 'id': '557544', 'lat': '49.267227', 'votes': [36, 75], 'town': 'Žichovice'},  {'lng': '13.62857', 'id': '566012', 'lat': '50.406844', 'votes': [10, 21], 'town': 'Blažim'},  {'lng': '13.631196', 'id': '542474', 'lat': '50.087629', 'votes': [26, 55], 'town': 'Šanov'},  {'lng': '13.631689', 'id': '559920', 'lat': '49.912871', 'votes': [8, 13], 'town': 'Kladruby'},  {'lng': '13.631732', 'id': '557536', 'lat': '49.215455', 'votes': [24, 75], 'town': 'Žihobce'},  {'lng': '13.632233', 'id': '540692', 'lat': '49.527473', 'votes': [5, 11], 'town': 'Sedlište'},  {'lng': '13.632591', 'id': '565261', 'lat': '50.123175', 'votes': [8, 26], 'town': 'Prílepy'},  {'lng': '13.633006', 'id': '567248', 'lat': '50.454446', 'votes': [10, 14], 'town': 'Lišnice'},  {'lng': '13.633906', 'id': '566748', 'lat': '49.984529', 'votes': [5, 10], 'town': 'Slatina'},  {'lng': '13.634501', 'id': '541141', 'lat': '49.862274', 'votes': [1, 5], 'town': 'Chomle'},  {'lng': '13.636478', 'id': '567272', 'lat': '50.587861', 'votes': [21, 71], 'town': 'Louka u Litvínova'},  {'lng': '13.636556', 'id': '541877', 'lat': '50.145672', 'votes': [44, 102], 'town': 'Kneževes'},  {'lng': '13.638237', 'id': '565369', 'lat': '50.018838', 'votes': [4, 15], 'town': 'Krakovec'},  {'lng': '13.638607', 'id': '540307', 'lat': '49.437753', 'votes': [7, 24], 'town': 'Chlumy'},  {'lng': '13.639169', 'id': '542229', 'lat': '50.067257', 'votes': [8, 35], 'town': 'Petrovice'},  {'lng': '13.639801', 'id': '565270', 'lat': '50.210403', 'votes': [2, 14], 'town': 'Janov'},  {'lng': '13.640398', 'id': '557129', 'lat': '49.179238', 'votes': [9, 33], 'town': 'Strašín'},  {'lng': '13.640524', 'id': '567027', 'lat': '50.502867', 'votes': [1720, 5904], 'town': 'Most'},  {'lng': '13.640681', 'id': '565997', 'lat': '50.373154', 'votes': [8, 15], 'town': 'Bitozeves'},  {'lng': '13.641692', 'id': '558079', 'lat': '49.480782', 'votes': [3, 5], 'town': 'Mohelnice'},  {'lng': '13.641913', 'id': '566411', 'lat': '50.344359', 'votes': [4, 12], 'town': 'Lišany'},  {'lng': '13.641971', 'id': '541931', 'lat': '49.413017', 'votes': [6, 21], 'town': 'Kvášnovice'},  {'lng': '13.642153', 'id': '566845', 'lat': '49.847364', 'votes': [12, 32], 'town': 'Skomelno'},  {'lng': '13.643025', 'id': '553603', 'lat': '49.960623', 'votes': [6, 7], 'town': 'Studená'},  {'lng': '13.643338', 'id': '559806', 'lat': '49.889472', 'votes': [19, 48], 'town': 'Hlohovice'},  {'lng': '13.645658', 'id': '561568', 'lat': '49.038696', 'votes': [0, 3], 'town': 'Nové Hute'},  {'lng': '13.645893', 'id': '558974', 'lat': '49.971814', 'votes': [2, 17], 'town': 'Chríc'},  {'lng': '13.647463', 'id': '565351', 'lat': '50.037362', 'votes': [20, 29], 'town': 'Krakov'},  {'lng': '13.648227', 'id': '541176', 'lat': '49.759868', 'votes': [18, 47], 'town': 'Svojkovice'},  {'lng': '13.652252', 'id': '556629', 'lat': '49.330513', 'votes': [20, 62], 'town': 'Malý Bor'},  {'lng': '13.652414', 'id': '560227', 'lat': '49.868662', 'votes': [12, 29], 'town': 'Vejvanov'},  {'lng': '13.652682', 'id': '567353', 'lat': '50.444438', 'votes': [10, 27], 'town': 'Polerady'},  {'lng': '13.653837', 'id': '578410', 'lat': '49.392958', 'votes': [4, 7], 'town': 'Manovice'},  {'lng': '13.654102', 'id': '559822', 'lat': '49.709921', 'votes': [91, 300], 'town': 'Hrádek'},  {'lng': '13.654487', 'id': '578568', 'lat': '49.488816', 'votes': [8, 12], 'town': 'Cmelíny'},  {'lng': '13.654521', 'id': '542377', 'lat': '50.098018', 'votes': [59, 132], 'town': 'Senomaty'},  {'lng': '13.657227', 'id': '567728', 'lat': '50.720632', 'votes': [5, 9], 'town': 'Moldava'},  {'lng': '13.657289', 'id': '567264', 'lat': '50.593278', 'votes': [100, 337], 'town': 'Lom'},  {'lng': '13.658067', 'id': '559997', 'lat': '49.687823', 'votes': [80, 218], 'town': 'Mirošov'},  {'lng': '13.65968', 'id': '540803', 'lat': '49.935682', 'votes': [1, 8], 'town': 'Chlum'},  {'lng': '13.659859', 'id': '545902', 'lat': '48.989832', 'votes': [7, 26], 'town': 'Borová Lada'},  {'lng': '13.661324', 'id': '530085', 'lat': '49.222481', 'votes': [2, 13], 'town': 'Bukovník'},  {'lng': '13.662004', 'id': '578517', 'lat': '49.250624', 'votes': [5, 12], 'town': 'Domoraz'},  {'lng': '13.66251', 'id': '566853', 'lat': '50.284644', 'votes': [17, 57], 'town': 'Tuchorice'},  {'lng': '13.66345', 'id': '579131', 'lat': '49.66827', 'votes': [18, 46], 'town': 'Príkosice'},  {'lng': '13.664987', 'id': '567302', 'lat': '50.574036', 'votes': [10, 29], 'town': 'Mariánské Radcice'},  {'lng': '13.666585', 'id': '550515', 'lat': '49.101793', 'votes': [41, 104], 'town': 'Stachy'},  {'lng': '13.666922', 'id': '565377', 'lat': '50.047816', 'votes': [2, 6], 'town': 'Malinová'},  {'lng': '13.667268', 'id': '542253', 'lat': '50.065727', 'votes': [6, 23], 'town': 'Prícina'},  {'lng': '13.667277', 'id': '541818', 'lat': '50.146438', 'votes': [25, 66], 'town': 'Chráštany'},  {'lng': '13.667947', 'id': '557374', 'lat': '49.299127', 'votes': [13, 31], 'town': 'Velké Hydcice'},  {'lng': '13.669098', 'id': '542075', 'lat': '50.193718', 'votes': [4, 21], 'town': 'Milostín'},  {'lng': '13.672099', 'id': '566951', 'lat': '50.395424', 'votes': [6, 31], 'town': 'Výškov'},  {'lng': '13.672825', 'id': '558184', 'lat': '49.437202', 'votes': [12, 47], 'town': 'Oselce'},  {'lng': '13.674696', 'id': '541796', 'lat': '49.289372', 'votes': [10, 26], 'town': 'Hejná'},  {'lng': '13.674925', 'id': '578533', 'lat': '49.2624', 'votes': [12, 26], 'town': 'Nezamyslice'},  {'lng': '13.675093', 'id': '541907', 'lat': '50.212873', 'votes': [20, 56], 'town': 'Kounov'},  {'lng': '13.677916', 'id': '579343', 'lat': '49.665932', 'votes': [2, 4], 'town': 'Štítov'},  {'lng': '13.680861', 'id': '566403', 'lat': '50.300597', 'votes': [29, 47], 'town': 'Lipno'},  {'lng': '13.682641', 'id': '579289', 'lat': '49.651197', 'votes': [4, 9], 'town': 'Vísky'},  {'lng': '13.683099', 'id': '559849', 'lat': '49.745876', 'votes': [10, 35], 'town': 'Hurky'},  {'lng': '13.68339', 'id': '557650', 'lat': '49.540372', 'votes': [31, 97], 'town': 'Cížkov'},  {'lng': '13.683628', 'id': '558176', 'lat': '49.579579', 'votes': [6, 26], 'town': 'Nové Mitrovice'},  {'lng': '13.684102', 'id': '557099', 'lat': '49.207798', 'votes': [12, 34], 'town': 'Sobešice'},  {'lng': '13.685194', 'id': '540137', 'lat': '49.466479', 'votes': [2, 6], 'town': 'Životice'},  {'lng': '13.685855', 'id': '567779', 'lat': '50.622711', 'votes': [139, 420], 'town': 'Osek'},  {'lng': '13.686814', 'id': '559776', 'lat': '49.715656', 'votes': [37, 121], 'town': 'Dobrív'},  {'lng': '13.687899', 'id': '542130', 'lat': '50.17956', 'votes': [26, 47], 'town': 'Nesuchyne'},  {'lng': '13.688701', 'id': '541061', 'lat': '49.953136', 'votes': [0, 7], 'town': 'Zvíkovec'},  {'lng': '13.690373', 'id': '566705', 'lat': '49.621981', 'votes': [5, 16], 'town': 'Borovno'},  {'lng': '13.690385', 'id': '546437', 'lat': '50.434884', 'votes': [3, 7], 'town': 'Volevcice'},  {'lng': '13.692148', 'id': '560146', 'lat': '49.869859', 'votes': [3, 14], 'town': 'Sebecice'},  {'lng': '13.692458', 'id': '559814', 'lat': '49.775983', 'votes': [71, 178], 'town': 'Holoubkov'},  {'lng': '13.694189', 'id': '541826', 'lat': '49.266887', 'votes': [0, 15], 'town': 'Kejnice'},  {'lng': '13.695397', 'id': '567337', 'lat': '50.504977', 'votes': [25, 96], 'town': 'Obrnice'},  {'lng': '13.695851', 'id': '542199', 'lat': '50.128492', 'votes': [25, 71], 'town': 'Olešná'},  {'lng': '13.695966', 'id': '560006', 'lat': '49.920293', 'votes': [19, 37], 'town': 'Mlecice'},  {'lng': '13.697377', 'id': '550728', 'lat': '49.084565', 'votes': [42, 201], 'town': 'Zdíkov'},  {'lng': '13.698026', 'id': '546526', 'lat': '49.802191', 'votes': [13, 47], 'town': 'Teškov'},  {'lng': '13.6984', 'id': '565334', 'lat': '50.0515', 'votes': [5, 16], 'town': 'Hvozd'},  {'lng': '13.69974', 'id': '566802', 'lat': '49.896677', 'votes': [4, 12], 'town': 'Terešov'},  {'lng': '13.70017', 'id': '567060', 'lat': '50.542949', 'votes': [23, 93], 'town': 'Branany'},  {'lng': '13.700737', 'id': '542032', 'lat': '50.076924', 'votes': [36, 115], 'town': 'Lubná'},  {'lng': '13.701002', 'id': '556254', 'lat': '49.320687', 'votes': [241, 682], 'town': 'Horaždovice'},  {'lng': '13.701413', 'id': '557382', 'lat': '49.364925', 'votes': [52, 92], 'town': 'Velký Bor'},  {'lng': '13.702244', 'id': '579246', 'lat': '49.646921', 'votes': [3, 15], 'town': 'Trokavec'},  {'lng': '13.702908', 'id': '566624', 'lat': '50.359789', 'votes': [115, 348], 'town': 'Postoloprty'},  {'lng': '13.703784', 'id': '566578', 'lat': '50.250253', 'votes': [11, 22], 'town': 'Pnetluky'},  {'lng': '13.704369', 'id': '560081', 'lat': '49.943233', 'votes': [9, 32], 'town': 'Podmokly'},  {'lng': '13.705184', 'id': '567345', 'lat': '50.499809', 'votes': [14, 42], 'town': 'Patokryje'},  {'lng': '13.705262', 'id': '506664', 'lat': '49.677721', 'votes': [3, 25], 'town': 'Skorice'},  {'lng': '13.706869', 'id': '542369', 'lat': '50.066736', 'votes': [19, 40], 'town': 'Senec'},  {'lng': '13.707271', 'id': '578525', 'lat': '49.249554', 'votes': [6, 18], 'town': 'Frymburk'},  {'lng': '13.709508', 'id': '542121', 'lat': '50.194248', 'votes': [32, 61], 'town': 'Mutejovice'},  {'lng': '13.710708', 'id': '567001', 'lat': '49.827358', 'votes': [11, 22], 'town': 'Lhota pod Radcem'},  {'lng': '13.712577', 'id': '567523', 'lat': '50.630815', 'votes': [17, 77], 'town': 'Háj u Duchcova'},  {'lng': '13.713125', 'id': '542415', 'lat': '49.999752', 'votes': [27, 97], 'town': 'Slabce'},  {'lng': '13.715788', 'id': '529915', 'lat': '49.141277', 'votes': [3, 5], 'town': 'Vrbice'},  {'lng': '13.716696', 'id': '536946', 'lat': '49.271547', 'votes': [7, 10], 'town': 'Kalenice'},  {'lng': '13.716808', 'id': '542211', 'lat': '50.035997', 'votes': [16, 27], 'town': 'Panoší Újezd'},  {'lng': '13.717357', 'id': '556335', 'lat': '49.404894', 'votes': [37, 98], 'town': 'Chanovice'},  {'lng': '13.717629', 'id': '541001', 'lat': '49.963015', 'votes': [4, 8], 'town': 'Hradište'},  {'lng': '13.717842', 'id': '567043', 'lat': '50.449718', 'votes': [42, 160], 'town': 'Becov'},  {'lng': '13.71848', 'id': '536954', 'lat': '49.23372', 'votes': [4, 5], 'town': 'Krejnice'},  {'lng': '13.719077', 'id': '579009', 'lat': '49.773843', 'votes': [9, 29], 'town': 'Medový Újezd'},  {'lng': '13.720434', 'id': '550531', 'lat': '48.908578', 'votes': [5, 26], 'town': 'Strážný'},  {'lng': '13.721536', 'id': '566063', 'lat': '50.401148', 'votes': [5, 24], 'town': 'Brvany'},  {'lng': '13.721597', 'id': '567701', 'lat': '50.687607', 'votes': [7, 18], 'town': 'Mikulov'},  {'lng': '13.722976', 'id': '567221', 'lat': '50.47858', 'votes': [8, 13], 'town': 'Korozluky'},  {'lng': '13.725837', 'id': '530379', 'lat': '49.877102', 'votes': [6, 16], 'town': 'Drahonuv Újezd'},  {'lng': '13.726056', 'id': '567426', 'lat': '50.527613', 'votes': [10, 29], 'town': 'Želenice'},  {'lng': '13.726357', 'id': '566993', 'lat': '49.918067', 'votes': [2, 11], 'town': 'Ostrovec-Lhotka'},  {'lng': '13.726759', 'id': '567558', 'lat': '50.659194', 'votes': [54, 151], 'town': 'Hrob'},  {'lng': '13.728058', 'id': '540102', 'lat': '49.426571', 'votes': [6, 12], 'town': 'Nezdrev'},  {'lng': '13.72828', 'id': '546399', 'lat': '49.619719', 'votes': [4, 14], 'town': 'Míšov'},  {'lng': '13.728805', 'id': '541656', 'lat': '50.104266', 'votes': [612, 1785], 'town': 'Rakovník'},  {'lng': '13.729106', 'id': '550621', 'lat': '49.136863', 'votes': [36, 125], 'town': 'Vacov'},  {'lng': '13.729516', 'id': '566152', 'lat': '50.234152', 'votes': [26, 66], 'town': 'Domoušice'},  {'lng': '13.729608', 'id': '551775', 'lat': '49.202447', 'votes': [10, 34], 'town': 'Strašice'},  {'lng': '13.730237', 'id': '566217', 'lat': '50.28811', 'votes': [22, 73], 'town': 'Hrivice'},  {'lng': '13.731576', 'id': '541966', 'lat': '50.17485', 'votes': [8, 34], 'town': 'Krupá'},  {'lng': '13.733665', 'id': '560201', 'lat': '49.187388', 'votes': [0, 8], 'town': 'Nová Ves'},  {'lng': '13.734613', 'id': '560014', 'lat': '49.789046', 'votes': [56, 140], 'town': 'Mýto'},  {'lng': '13.735231', 'id': '542555', 'lat': '50.31148', 'votes': [7, 18], 'town': 'Opocno'},  {'lng': '13.735287', 'id': '558061', 'lat': '49.506304', 'votes': [36, 79], 'town': 'Mladý Smolivec'},  {'lng': '13.735338', 'id': '566861', 'lat': '49.843489', 'votes': [4, 13], 'town': 'Plískov'},  {'lng': '13.736967', 'id': '544248', 'lat': '50.05682', 'votes': [43, 130], 'town': 'Pavlíkov'},  {'lng': '13.738437', 'id': '546488', 'lat': '49.821436', 'votes': [3, 13], 'town': 'Sirá'},  {'lng': '13.739589', 'id': '557161', 'lat': '49.371338', 'votes': [15, 42], 'town': 'Svéradice'},  {'lng': '13.7406', 'id': '557862', 'lat': '49.462698', 'votes': [39, 130], 'town': 'Kasejovice'},  {'lng': '13.740604', 'id': '551023', 'lat': '49.167308', 'votes': [8, 36], 'town': 'Drážov'},  {'lng': '13.741928', 'id': '542016', 'lat': '50.147346', 'votes': [42, 83], 'town': 'Lišany'},  {'lng': '13.742057', 'id': '540927', 'lat': '49.961661', 'votes': [0, 0], 'town': 'Cilá'},  {'lng': '13.744163', 'id': '578436', 'lat': '49.387763', 'votes': [8, 19], 'town': 'Slatina'},  {'lng': '13.746208', 'id': '567515', 'lat': '50.603766', 'votes': [196, 697], 'town': 'Duchcov'},  {'lng': '13.747144', 'id': '546011', 'lat': '50.320298', 'votes': [29, 74], 'town': 'Jimlín'},  {'lng': '13.747882', 'id': '551961', 'lat': '49.25239', 'votes': [12, 41], 'town': 'Volenice'},  {'lng': '13.748905', 'id': '567582', 'lat': '50.628597', 'votes': [16, 67], 'town': 'Jeníkov'},  {'lng': '13.749413', 'id': '541770', 'lat': '50.188001', 'votes': [26, 62], 'town': 'Hredle'},  {'lng': '13.752728', 'id': '542504', 'lat': '50.214312', 'votes': [4, 17], 'town': 'Treboc'},  {'lng': '13.753223', 'id': '541761', 'lat': '49.984537', 'votes': [6, 33], 'town': 'Hrebecníky'},  {'lng': '13.754138', 'id': '567281', 'lat': '50.491697', 'votes': [16, 49], 'town': 'Lužice'},  {'lng': '13.754393', 'id': '567361', 'lat': '50.465624', 'votes': [8, 19], 'town': 'Skršín'},  {'lng': '13.755541', 'id': '567621', 'lat': '50.655075', 'votes': [80, 281], 'town': 'Koštany'},  {'lng': '13.755955', 'id': '551791', 'lat': '49.297596', 'votes': [33, 83], 'town': 'Strelské Hoštice'},  {'lng': '13.756093', 'id': '557749', 'lat': '49.439325', 'votes': [6, 25], 'town': 'Hradište'},  {'lng': '13.757548', 'id': '560162', 'lat': '49.735518', 'votes': [100, 246], 'town': 'Strašice'},  {'lng': '13.757641', 'id': '542598', 'lat': '50.046096', 'votes': [17, 35], 'town': 'Všetaty'},  {'lng': '13.757651', 'id': '536873', 'lat': '49.212369', 'votes': [2, 5], 'town': 'Zvotoky'},  {'lng': '13.758697', 'id': '550205', 'lat': '48.957043', 'votes': [5, 21], 'town': 'Horní Vltavice'},  {'lng': '13.762816', 'id': '567051', 'lat': '50.449157', 'votes': [15, 39], 'town': 'Belušice'},  {'lng': '13.76307', 'id': '551104', 'lat': '49.191179', 'votes': [10, 28], 'town': 'Hoslovice'},  {'lng': '13.763457', 'id': '560405', 'lat': '49.268707', 'votes': [2, 13], 'town': 'Kladruby'},  {'lng': '13.763792', 'id': '559768', 'lat': '49.821862', 'votes': [3, 6], 'town': 'Cekov'},  {'lng': '13.764492', 'id': '542385', 'lat': '49.964847', 'votes': [6, 25], 'town': 'Skryje'},  {'lng': '13.76529', 'id': '567647', 'lat': '50.618239', 'votes': [15, 54], 'town': 'Lahošt'},  {'lng': '13.765519', 'id': '536920', 'lat': '49.255401', 'votes': [13, 29], 'town': 'Štechovice'},  {'lng': '13.765895', 'id': '566322', 'lat': '50.375162', 'votes': [35, 124], 'town': 'Lenešice'},  {'lng': '13.765915', 'id': '566977', 'lat': '50.299307', 'votes': [11, 27], 'town': 'Zbrašín'},  {'lng': '13.770042', 'id': '542041', 'lat': '50.123771', 'votes': [75, 223], 'town': 'Lužná'},  {'lng': '13.770366', 'id': '551627', 'lat': '49.489262', 'votes': [10, 36], 'town': 'Predmír'},  {'lng': '13.771823', 'id': '563978', 'lat': '48.983226', 'votes': [3, 8], 'town': 'Kubova Hut'},  {'lng': '13.772026', 'id': '567655', 'lat': '50.585013', 'votes': [4, 44], 'town': 'Ledvice'},  {'lng': '13.77262', 'id': '560260', 'lat': '49.860239', 'votes': [105, 262], 'town': 'Zbiroh'},  {'lng': '13.773666', 'id': '566667', 'lat': '50.252567', 'votes': [70, 60], 'town': 'Rocov'},  {'lng': '13.773689', 'id': '565202', 'lat': '50.003083', 'votes': [2, 3], 'town': 'Hracholusky'},  {'lng': '13.774257', 'id': '550647', 'lat': '49.052434', 'votes': [246, 660], 'town': 'Vimperk'},  {'lng': '13.774288', 'id': '567451', 'lat': '50.548917', 'votes': [330, 1173], 'town': 'Bílina'},  {'lng': '13.774776', 'id': '551180', 'lat': '49.402725', 'votes': [14, 36], 'town': 'Kadov'},  {'lng': '13.775672', 'id': '551040', 'lat': '49.161137', 'votes': [8, 36], 'town': 'Drešín'},  {'lng': '13.776024', 'id': '541974', 'lat': '50.171795', 'votes': [24, 48], 'town': 'Krušovice'},  {'lng': '13.779262', 'id': '566659', 'lat': '50.41156', 'votes': [8, 26], 'town': 'Raná'},  {'lng': '13.780942', 'id': '536504', 'lat': '49.140369', 'votes': [1, 1], 'town': 'Vacovice'},  {'lng': '13.78161', 'id': '559903', 'lat': '49.82425', 'votes': [20, 68], 'town': 'Karez'},  {'lng': '13.7822', 'id': '542008', 'lat': '50.054955', 'votes': [4, 12], 'town': 'Lašovice'},  {'lng': '13.78282', 'id': '536881', 'lat': '49.285956', 'votes': [9, 50], 'town': 'Horní Porící'},  {'lng': '13.783945', 'id': '541940', 'lat': '50.20677', 'votes': [7, 29], 'town': 'Kroucová'},  {'lng': '13.784062', 'id': '551350', 'lat': '49.457899', 'votes': [20, 79], 'town': 'Lnáre'},  {'lng': '13.784513', 'id': '530557', 'lat': '50.456755', 'votes': [4, 13], 'town': 'Kozly'},  {'lng': '13.785383', 'id': '559857', 'lat': '49.778926', 'votes': [23, 92], 'town': 'Cheznovice'},  {'lng': '13.785603', 'id': '567566', 'lat': '50.517343', 'votes': [27, 78], 'town': 'Hrobcice'},  {'lng': '13.787482', 'id': '567868', 'lat': '50.604952', 'votes': [26, 114], 'town': 'Zabrušany'},  {'lng': '13.788833', 'id': '567507', 'lat': '50.681034', 'votes': [190, 594], 'town': 'Dubí'},  {'lng': '13.789753', 'id': '567850', 'lat': '50.645713', 'votes': [16, 76], 'town': 'Újezdecek'},  {'lng': '13.79327', 'id': '550353', 'lat': '48.922309', 'votes': [11, 34], 'town': 'Lenora'},  {'lng': '13.79426', 'id': '542237', 'lat': '50.227438', 'votes': [11, 40], 'town': 'Pochvalov'},  {'lng': '13.794312', 'id': '546534', 'lat': '49.869242', 'votes': [12, 28], 'town': 'Týcek'},  {'lng': '13.794732', 'id': '546861', 'lat': '50.370092', 'votes': [37, 148], 'town': 'Dobromerice'},  {'lng': '13.794866', 'id': '510068', 'lat': '49.374009', 'votes': [2, 15], 'town': 'Cecelovice'},  {'lng': '13.79616', 'id': '560189', 'lat': '49.751194', 'votes': [10, 28], 'town': 'Tene'},  {'lng': '13.796309', 'id': '565971', 'lat': '50.357773', 'votes': [622, 1778], 'town': 'Louny'},  {'lng': '13.797477', 'id': '530018', 'lat': '49.507767', 'votes': [8, 13], 'town': 'Brezí'},  {'lng': '13.797524', 'id': '551554', 'lat': '49.262663', 'votes': [11, 24], 'town': 'Novosedly'},  {'lng': '13.799633', 'id': '530361', 'lat': '49.81336', 'votes': [6, 6], 'town': 'Karízek'},  {'lng': '13.79992', 'id': '546879', 'lat': '50.312489', 'votes': [26, 54], 'town': 'Líštany'},  {'lng': '13.800085', 'id': '536474', 'lat': '49.192693', 'votes': [6, 10], 'town': 'Nemcice'},  {'lng': '13.801614', 'id': '546895', 'lat': '50.29492', 'votes': [4, 15], 'town': 'Brodec'},  {'lng': '13.80379', 'id': '550957', 'lat': '49.166543', 'votes': [32, 105], 'town': 'Cestice'},  {'lng': '13.803947', 'id': '551261', 'lat': '49.227829', 'votes': [7, 22], 'town': 'Kraselov'},  {'lng': '13.804739', 'id': '567531', 'lat': '50.588246', 'votes': [32, 110], 'town': 'Hostomice'},  {'lng': '13.805109', 'id': '540315', 'lat': '49.528248', 'votes': [33, 100], 'town': 'Hvoždany'},  {'lng': '13.806414', 'id': '559962', 'lat': '49.885005', 'votes': [7, 16], 'town': 'Líšná'},  {'lng': '13.806773', 'id': '536628', 'lat': '49.334689', 'votes': [7, 11], 'town': 'Hlupín'},  {'lng': '13.807697', 'id': '565407', 'lat': '50.246942', 'votes': [6, 8], 'town': 'Smilovice'},  {'lng': '13.808234', 'id': '542351', 'lat': '50.184887', 'votes': [58, 142], 'town': 'Revnicov'},  {'lng': '13.80988', 'id': '536598', 'lat': '49.437041', 'votes': [8, 39], 'town': 'Tchorovice'},  {'lng': '13.809904', 'id': '542571', 'lat': '50.333717', 'votes': [33, 89], 'town': 'Cítoliby'},  {'lng': '13.810011', 'id': '531626', 'lat': '49.780356', 'votes': [21, 58], 'town': 'Olešná'},  {'lng': '13.811594', 'id': '567841', 'lat': '50.576131', 'votes': [35, 92], 'town': 'Svetec'},  {'lng': '13.81203', 'id': '551392', 'lat': '49.347767', 'votes': [6, 27], 'town': 'Mecichov'},  {'lng': '13.814006', 'id': '542288', 'lat': '50.055603', 'votes': [1, 13], 'town': 'Pustovety'},  {'lng': '13.815576', 'id': '565385', 'lat': '50.255284', 'votes': [2, 9], 'town': 'Kozojedy'},  {'lng': '13.81634', 'id': '550116', 'lat': '49.096074', 'votes': [16, 45], 'town': 'Bohumilice'},  {'lng': '13.817512', 'id': '536482', 'lat': '49.208652', 'votes': [1, 9], 'town': 'Zahorcice'},  {'lng': '13.817976', 'id': '567698', 'lat': '50.480418', 'votes': [6, 15], 'town': 'Merunice'},  {'lng': '13.821417', 'id': '550523', 'lat': '48.859365', 'votes': [2, 16], 'town': 'Stožec'},  {'lng': '13.822119', 'id': '598585', 'lat': '50.013168', 'votes': [2, 6], 'town': 'Nezabudice'},  {'lng': '13.822755', 'id': '566918', 'lat': '50.265659', 'votes': [17, 32], 'town': 'Vinarice'},  {'lng': '13.823041', 'id': '567752', 'lat': '50.656334', 'votes': [77, 182], 'town': 'Novosedlice'},  {'lng': '13.824215', 'id': '541508', 'lat': '49.615249', 'votes': [39, 71], 'town': 'Vešín'},  {'lng': '13.824423', 'id': '567442', 'lat': '50.641389', 'votes': [1292, 4032], 'town': 'Teplice'},  {'lng': '13.825504', 'id': '567604', 'lat': '50.614916', 'votes': [5, 22], 'town': 'Kladruby'},  {'lng': '13.826947', 'id': '551988', 'lat': '49.378792', 'votes': [20, 43], 'town': 'Záborí'},  {'lng': '13.827571', 'id': '536601', 'lat': '49.465065', 'votes': [6, 27], 'town': 'Kocelovice'},  {'lng': '13.828239', 'id': '551201', 'lat': '49.274511', 'votes': [42, 152], 'town': 'Katovice'},  {'lng': '13.829059', 'id': '550167', 'lat': '49.115028', 'votes': [53, 176], 'town': 'Ckyne'},  {'lng': '13.829497', 'id': '546429', 'lat': '50.408252', 'votes': [2, 15], 'town': 'Chraberce'},  {'lng': '13.830072', 'id': '536563', 'lat': '49.30208', 'votes': [6, 41], 'town': 'Mnichov'},  {'lng': '13.830892', 'id': '542181', 'lat': '50.088135', 'votes': [6, 11], 'town': 'Nový Dum'},  {'lng': '13.831429', 'id': '550558', 'lat': '49.064525', 'votes': [18, 53], 'town': 'Svatá Marí'},  {'lng': '13.836003', 'id': '551597', 'lat': '49.446666', 'votes': [1, 8], 'town': 'Hajany'},  {'lng': '13.836009', 'id': '567787', 'lat': '50.667728', 'votes': [45, 235], 'town': 'Proboštov'},  {'lng': '13.836415', 'id': '531138', 'lat': '49.850732', 'votes': [60, 111], 'town': 'Cerhovice'},  {'lng': '13.836732', 'id': '598950', 'lat': '49.391398', 'votes': [1, 8], 'town': 'Lažánky'},  {'lng': '13.837261', 'id': '564524', 'lat': '49.642789', 'votes': [1, 17], 'town': 'Nepomuk'},  {'lng': '13.837468', 'id': '531901', 'lat': '49.83125', 'votes': [24, 74], 'town': 'Újezd'},  {'lng': '13.837645', 'id': '531308', 'lat': '49.79345', 'votes': [4, 21], 'town': 'Jivina'},  {'lng': '13.838177', 'id': '566349', 'lat': '50.452469', 'votes': [37, 67], 'town': 'Libceves'},  {'lng': '13.838362', 'id': '536695', 'lat': '49.201447', 'votes': [6, 18], 'town': 'Úlehle'},  {'lng': '13.839767', 'id': '536369', 'lat': '49.482751', 'votes': [2, 9], 'town': 'Hornosín'},  {'lng': '13.840329', 'id': '550124', 'lat': '49.089282', 'votes': [16, 26], 'town': 'Bošice'},  {'lng': '13.840576', 'id': '531154', 'lat': '49.863136', 'votes': [41, 83], 'town': 'Drozdov'},  {'lng': '13.840717', 'id': '531995', 'lat': '49.774349', 'votes': [53, 139], 'town': 'Zajecov'},  {'lng': '13.841021', 'id': '598577', 'lat': '50.217166', 'votes': [6, 4], 'town': 'Prerubenice'},  {'lng': '13.841591', 'id': '560219', 'lat': '49.24268', 'votes': [9, 19], 'town': 'Drachkov'},  {'lng': '13.841858', 'id': '565440', 'lat': '50.208422', 'votes': [6, 18], 'town': 'Kalivody'},  {'lng': '13.842008', 'id': '546887', 'lat': '50.368478', 'votes': [10, 38], 'town': 'Vršovice'},  {'lng': '13.84235', 'id': '537063', 'lat': '49.365254', 'votes': [7, 8], 'town': 'Bratronice'},  {'lng': '13.842678', 'id': '542636', 'lat': '50.285853', 'votes': [4, 12], 'town': 'Nová Ves'},  {'lng': '13.842912', 'id': '541672', 'lat': '50.012876', 'votes': [14, 38], 'town': 'Branov'},  {'lng': '13.843216', 'id': '566233', 'lat': '50.334938', 'votes': [14, 43], 'town': 'Chlumcany'},  {'lng': '13.844673', 'id': '567761', 'lat': '50.58703', 'votes': [24, 77], 'town': 'Ohníc'},  {'lng': '13.845146', 'id': '537519', 'lat': '49.037905', 'votes': [9, 32], 'town': 'Buk'},  {'lng': '13.845213', 'id': '542628', 'lat': '50.36138', 'votes': [48, 133], 'town': 'Cerncice'},  {'lng': '13.847184', 'id': '542563', 'lat': '50.034555', 'votes': [9, 36], 'town': 'Velká Buková'},  {'lng': '13.848003', 'id': '536555', 'lat': '49.291302', 'votes': [9, 27], 'town': 'Krty-Hradec'},  {'lng': '13.848461', 'id': '566721', 'lat': '50.30867', 'votes': [11, 29], 'town': 'Smolnice'},  {'lng': '13.849127', 'id': '551619', 'lat': '49.257181', 'votes': [11, 26], 'town': 'Pracejovice'},  {'lng': '13.85061', 'id': '561649', 'lat': '49.114533', 'votes': [3, 13], 'town': 'Lcovice'},  {'lng': '13.851088', 'id': '529982', 'lat': '49.447197', 'votes': [3, 21], 'town': 'Chlum'},  {'lng': '13.852259', 'id': '531081', 'lat': '49.955066', 'votes': [35, 85], 'town': 'Broumy'},  {'lng': '13.852646', 'id': '542547', 'lat': '50.346981', 'votes': [10, 25], 'town': 'Blšany u Loun'},  {'lng': '13.856037', 'id': '531324', 'lat': '49.806705', 'votes': [90, 255], 'town': 'Komárov'},  {'lng': '13.858519', 'id': '531634', 'lat': '49.819638', 'votes': [35, 121], 'town': 'Osek'},  {'lng': '13.858741', 'id': '565423', 'lat': '50.21414', 'votes': [7, 10], 'town': 'Bdín'},  {'lng': '13.858992', 'id': '566241', 'lat': '50.398766', 'votes': [18, 44], 'town': 'Chožov'},  {'lng': '13.860491', 'id': '532002', 'lat': '49.842692', 'votes': [16, 70], 'town': 'Záluží'},  {'lng': '13.860992', 'id': '551899', 'lat': '49.332533', 'votes': [15, 43], 'town': 'Trebohostice'},  {'lng': '13.861709', 'id': '551520', 'lat': '49.188261', 'votes': [7, 21], 'town': 'Nihošovice'},  {'lng': '13.86192', 'id': '550981', 'lat': '49.352011', 'votes': [9, 35], 'town': 'Doubravice'},  {'lng': '13.862399', 'id': '565288', 'lat': '49.987281', 'votes': [4, 14], 'town': 'Karlova Ves'},  {'lng': '13.862399', 'id': '531120', 'lat': '49.897886', 'votes': [18, 47], 'town': 'Bzová'},  {'lng': '13.862654', 'id': '536831', 'lat': '49.219043', 'votes': [4, 11], 'town': 'Libetice'},  {'lng': '13.862969', 'id': '542580', 'lat': '50.373252', 'votes': [11, 41], 'town': 'Obora'},  {'lng': '13.863481', 'id': '542512', 'lat': '50.185', 'votes': [8, 38], 'town': 'Trtice'},  {'lng': '13.863561', 'id': '542067', 'lat': '50.050634', 'votes': [13, 35], 'town': 'Mestecko'},  {'lng': '13.864186', 'id': '567477', 'lat': '50.628671', 'votes': [80, 171], 'town': 'Bystrany'},  {'lng': '13.864252', 'id': '566195', 'lat': '50.291333', 'votes': [34, 29], 'town': 'Hríškov'},  {'lng': '13.864301', 'id': '541231', 'lat': '49.601956', 'votes': [190, 457], 'town': 'Rožmitál pod Tremšínem'},  {'lng': '13.867038', 'id': '565466', 'lat': '50.232666', 'votes': [2, 10], 'town': 'Milý'},  {'lng': '13.867867', 'id': '598526', 'lat': '50.026715', 'votes': [41, 90], 'town': 'Roztoky'},  {'lng': '13.868404', 'id': '563951', 'lat': '49.312239', 'votes': [2, 4], 'town': 'Únice'},  {'lng': '13.868525', 'id': '551759', 'lat': '49.232049', 'votes': [3, 12], 'town': 'Sousedovice'},  {'lng': '13.869286', 'id': '567833', 'lat': '50.660655', 'votes': [8, 22], 'town': 'Srbice'},  {'lng': '13.870108', 'id': '541982', 'lat': '50.039482', 'votes': [23, 62], 'town': 'Krivoklát'},  {'lng': '13.871748', 'id': '531251', 'lat': '49.79127', 'votes': [21, 60], 'town': 'Chaloupky'},  {'lng': '13.872263', 'id': '550574', 'lat': '49.039395', 'votes': [14, 45], 'town': 'Šumavské Hoštice'},  {'lng': '13.872912', 'id': '567639', 'lat': '50.682436', 'votes': [601, 1027], 'town': 'Krupka'},  {'lng': '13.873053', 'id': '567612', 'lat': '50.560113', 'votes': [22, 80], 'town': 'Kostomlaty pod Milešovkou'},  {'lng': '13.875214', 'id': '566896', 'lat': '50.353212', 'votes': [14, 31], 'town': 'Velteže'},  {'lng': '13.875517', 'id': '533319', 'lat': '49.776015', 'votes': [3, 8], 'town': 'Malá Víska'},  {'lng': '13.875691', 'id': '542326', 'lat': '50.140785', 'votes': [37, 81], 'town': 'Ruda'},  {'lng': '13.87575', 'id': '550817', 'lat': '49.502411', 'votes': [35, 104], 'town': 'Belcice'},  {'lng': '13.876671', 'id': '531375', 'lat': '49.943698', 'votes': [23, 60], 'town': 'Kublov'},  {'lng': '13.876716', 'id': '530565', 'lat': '50.464157', 'votes': [1, 4], 'town': 'Želkovice'},  {'lng': '13.878458', 'id': '529672', 'lat': '49.577097', 'votes': [10, 13], 'town': 'Bezdekov pod Tremšínem'},  {'lng': '13.878705', 'id': '567485', 'lat': '50.589477', 'votes': [18, 68], 'town': 'Bžany'},  {'lng': '13.878975', 'id': '536725', 'lat': '49.194618', 'votes': [4, 6], 'town': 'Nemetice'},  {'lng': '13.879963', 'id': '598895', 'lat': '49.444187', 'votes': [14, 57], 'town': 'Bezdedovice'},  {'lng': '13.880298', 'id': '531235', 'lat': '49.807046', 'votes': [13, 31], 'town': 'Hvozdec'},  {'lng': '13.88051', 'id': '550485', 'lat': '49.079349', 'votes': [3, 6], 'town': 'Radhostice'},  {'lng': '13.880782', 'id': '564630', 'lat': '49.621763', 'votes': [16, 26], 'town': 'Sedlice'},  {'lng': '13.881759', 'id': '550850', 'lat': '49.424887', 'votes': [257, 783], 'town': 'Blatná'},  {'lng': '13.882541', 'id': '598437', 'lat': '49.565171', 'votes': [4, 22], 'town': 'Vševily'},  {'lng': '13.882769', 'id': '534463', 'lat': '49.885395', 'votes': [8, 26], 'town': 'Tocník'},  {'lng': '13.882827', 'id': '551384', 'lat': '49.126406', 'votes': [25, 60], 'town': 'Malenice'},  {'lng': '13.883007', 'id': '531090', 'lat': '49.904079', 'votes': [12, 31], 'town': 'Brezová'},  {'lng': '13.883133', 'id': '560197', 'lat': '49.362843', 'votes': [1, 3], 'town': 'Lažany'},  {'lng': '13.883348', 'id': '542431', 'lat': '50.224608', 'votes': [21, 32], 'town': 'Srbec'},  {'lng': '13.883667', 'id': '541524', 'lat': '49.547769', 'votes': [31, 47], 'town': 'Volenice'},  {'lng': '13.885407', 'id': '546909', 'lat': '50.528124', 'votes': [2, 12], 'town': 'Lukov'},  {'lng': '13.885612', 'id': '531847', 'lat': '49.850028', 'votes': [32, 90], 'town': 'Tlustice'},  {'lng': '13.886091', 'id': '536466', 'lat': '49.404254', 'votes': [11, 17], 'town': 'Mackov'},  {'lng': '13.886118', 'id': '566829', 'lat': '50.315287', 'votes': [5, 20], 'town': 'Toužetín'},  {'lng': '13.886236', 'id': '551970', 'lat': '49.165779', 'votes': [121, 317], 'town': 'Volyne'},  {'lng': '13.886575', 'id': '550671', 'lat': '48.908811', 'votes': [106, 399], 'town': 'Volary'},  {'lng': '13.887798', 'id': '566586', 'lat': '50.371821', 'votes': [12, 25], 'town': 'Pocedelice'},  {'lng': '13.889328', 'id': '536784', 'lat': '49.208493', 'votes': [11, 16], 'town': 'Strunkovice nad Volynkou'},  {'lng': '13.89228', 'id': '536792', 'lat': '49.218604', 'votes': [1, 9], 'town': 'Prední Zborovice'},  {'lng': '13.894581', 'id': '550698', 'lat': '49.107444', 'votes': [13, 32], 'town': 'Zálezly'},  {'lng': '13.894769', 'id': '536547', 'lat': '49.179536', 'votes': [2, 5], 'town': 'Prechovice'},  {'lng': '13.895336', 'id': '567710', 'lat': '50.650501', 'votes': [21, 47], 'town': 'Modlany'},  {'lng': '13.896537', 'id': '560278', 'lat': '49.239704', 'votes': [8, 40], 'town': 'Mutenice'},  {'lng': '13.897036', 'id': '551155', 'lat': '49.333186', 'votes': [10, 14], 'town': 'Chráštovice'},  {'lng': '13.897349', 'id': '532029', 'lat': '49.875739', 'votes': [77, 228], 'town': 'Žebrák'},  {'lng': '13.89735', 'id': '536962', 'lat': '49.155223', 'votes': [6, 25], 'town': 'Nišovice'},  {'lng': '13.898016', 'id': '560243', 'lat': '49.289078', 'votes': [3, 9], 'town': 'Droužetice'},  {'lng': '13.89857', 'id': '551678', 'lat': '49.233519', 'votes': [23, 51], 'town': 'Radošovice'},  {'lng': '13.898967', 'id': '541567', 'lat': '49.622621', 'votes': [13, 22], 'town': 'Vranovice'},  {'lng': '13.89926', 'id': '565776', 'lat': '50.458066', 'votes': [17, 91], 'town': 'Trebívlice'},  {'lng': '13.899318', 'id': '529923', 'lat': '49.046196', 'votes': [3, 5], 'town': 'Žárovná'},  {'lng': '13.899788', 'id': '542105', 'lat': '50.204836', 'votes': [30, 75], 'town': 'Mšec'},  {'lng': '13.900428', 'id': '542164', 'lat': '50.152718', 'votes': [333, 544], 'town': 'Nové Strašecí'},  {'lng': '13.901639', 'id': '550787', 'lat': '49.261221', 'votes': [877, 2445], 'town': 'Strakonice'},  {'lng': '13.902681', 'id': '531189', 'lat': '49.835973', 'votes': [254, 706], 'town': 'Horovice'},  {'lng': '13.906335', 'id': '567876', 'lat': '50.590026', 'votes': [10, 35], 'town': 'Žalany'},  {'lng': '13.906972', 'id': '566926', 'lat': '50.322516', 'votes': [7, 26], 'town': 'Vrbno nad Lesy'},  {'lng': '13.907699', 'id': '566713', 'lat': '50.350526', 'votes': [13, 38], 'town': 'Slavetín'},  {'lng': '13.908466', 'id': '564729', 'lat': '50.438595', 'votes': [5, 33], 'town': 'Decany'},  {'lng': '13.908705', 'id': '567809', 'lat': '50.603524', 'votes': [25, 59], 'town': 'Rtyne nad Bílinou'},  {'lng': '13.909466', 'id': '551121', 'lat': '49.194212', 'votes': [8, 16], 'town': 'Hoštice'},  {'lng': '13.912101', 'id': '543012', 'lat': '50.286227', 'votes': [5, 25], 'town': 'Žerotín'},  {'lng': '13.913522', 'id': '531685', 'lat': '49.815619', 'votes': [32, 99], 'town': 'Podluhy'},  {'lng': '13.916261', 'id': '566535', 'lat': '50.295835', 'votes': [17, 30], 'town': 'Panenský Týnec'},  {'lng': '13.916349', 'id': '535125', 'lat': '50.262047', 'votes': [9, 26], 'town': 'Bílichov'},  {'lng': '13.916606', 'id': '540625', 'lat': '49.652032', 'votes': [29, 78], 'town': 'Láz'},  {'lng': '13.918388', 'id': '529681', 'lat': '49.514779', 'votes': [14, 24], 'town': 'Koupe'},  {'lng': '13.919519', 'id': '534455', 'lat': '49.877938', 'votes': [10, 29], 'town': 'Chlustina'},  {'lng': '13.920266', 'id': '530620', 'lat': '50.686673', 'votes': [11, 26], 'town': 'Prestanov'},  {'lng': '13.920359', 'id': '542610', 'lat': '50.041795', 'votes': [31, 67], 'town': 'Zbecno'},  {'lng': '13.9206', 'id': '531219', 'lat': '49.903794', 'votes': [12, 43], 'town': 'Hredle'},  {'lng': '13.920764', 'id': '537187', 'lat': '49.025321', 'votes': [5, 12], 'town': 'Drslavice'},  {'lng': '13.922218', 'id': '542334', 'lat': '50.137927', 'votes': [52, 87], 'town': 'Rynholec'},  {'lng': '13.922509', 'id': '513580', 'lat': '49.531683', 'votes': [14, 38], 'town': 'Hudcice'},  {'lng': '13.922931', 'id': '599760', 'lat': '50.024728', 'votes': [11, 23], 'town': 'Racice'},  {'lng': '13.923122', 'id': '542113', 'lat': '50.179009', 'votes': [19, 72], 'town': 'Mšecké Žehrovice'},  {'lng': '13.923239', 'id': '564605', 'lat': '49.559661', 'votes': [9, 33], 'town': 'Hlubyne'},  {'lng': '13.925156', 'id': '534072', 'lat': '49.856734', 'votes': [9, 36], 'town': 'Kotopeky'},  {'lng': '13.926026', 'id': '571423', 'lat': '50.271055', 'votes': [10, 18], 'town': 'Zichovec'},  {'lng': '13.927709', 'id': '550345', 'lat': '49.037554', 'votes': [12, 36], 'town': 'Lažište'},  {'lng': '13.928507', 'id': '537136', 'lat': '49.02025', 'votes': [2, 2], 'town': 'Kratušín'},  {'lng': '13.928926', 'id': '571555', 'lat': '50.250557', 'votes': [1, 5], 'town': 'Líský'},  {'lng': '13.9292', 'id': '567469', 'lat': '50.579357', 'votes': [12, 26], 'town': 'Borislav'},  {'lng': '13.930082', 'id': '536539', 'lat': '49.188087', 'votes': [0, 4], 'town': 'Milejovice'},  {'lng': '13.931291', 'id': '550680', 'lat': '48.998548', 'votes': [18, 37], 'town': 'Záblatí'},  {'lng': '13.931722', 'id': '542466', 'lat': '50.034585', 'votes': [15, 50], 'town': 'Sýkorice'},  {'lng': '13.931972', 'id': '551660', 'lat': '49.316211', 'votes': [47, 127], 'town': 'Radomyšl'},  {'lng': '13.93261', 'id': '529966', 'lat': '49.422624', 'votes': [7, 13], 'town': 'Buzice'},  {'lng': '13.933429', 'id': '531693', 'lat': '49.865881', 'votes': [42, 101], 'town': 'Praskolesy'},